causas,lon,lat,raca,genero,idade,data,endereco
Shooting,-76.674227,39.311024,Black,Male,17,2007-01-01,3400 Clifton Ave.
Shooting,-76.698948,39.312641,Black,Male,26,2007-01-02,4900 Challedon Road
Blunt Force,-76.649882,39.309781,Black,Female,44,2007-01-02,2000 West North Ave
Asphyxiation,-76.598772,39.363925,Black,Male,21,2007-01-03,5900 Northwood Drive
Blunt Force,-76.602718,39.238928,White,Male,61,2007-01-05,500 Maude Ave.
Shooting,-76.607979,39.352676,Black,Male,46,2007-01-05,5200 Ready Ave.
Shooting,-76.622023,39.310999,Black,Male,27,2007-01-05,300 West North Ave.
Shooting,-76.584475,39.311103,Black,Male,21,2007-01-07,1800 North Montford Ave.
Shooting,-76.56496,39.348101,Black,Male,16,2007-01-08,5100 Harford Road
Shooting,-76.568647,39.31505,Black,Male,21,2007-01-08,3100 Ravenwood Road
Shooting,-76.690475,39.319081,Black,Male,34,2007-01-09,4500 Fairfax Road
Shooting,-76.614191,39.317947,Black,Male,25,2007-01-09,200 East 25th Street
Shooting,-76.603307,39.234253,White,Female,23,2007-01-09,600 Washburn Ave.
Shooting,-76.609721,39.35211,Black,Male,30,2007-01-09,5200 York Road
Shooting,-76.597963,39.304176,Black,Male,26,2007-01-09,1200 North Caroline St.
Shooting,-76.59528,39.32488,Black,Male,36,2007-01-13,1500 East 29th Street
Stabbing,-76.571191,39.367143,Black,Male,21,2007-01-15,2200 Fleetwood Ave.
Shooting,-76.640377,39.303363,Black,Female,27,2007-01-18,1300 North Calhoun St.
Shooting,-76.603138,39.290452,Black,Male,30,2007-01-20,1000 E. Baltimore St.
Shooting,-76.532941,39.330618,Black,Male,19,2007-01-20,5400 Cedonia Ave.
Shooting,-76.669075,39.305189,Black,Male,31,2007-01-22,3100 Brighton St
Shooting,-76.625618,39.299613,Black,Male,34,2007-01-23,500 West Preston St.
Shooting,-76.593591,39.304334,Black,Male,24,2007-01-23,1700 East Biddle street
Shooting,-76.634801,39.309478,Black,Male,31,2007-01-24,2100 Madison Ave.
Shooting,-76.5886,39.31092,Black,Male,33,2007-01-27,1800 North Chester St.
Shooting,-76.687649,39.349367,Black,Male,24,2007-01-27,3900 West Rogers Ave.
Asphyxiation,-76.709231,39.366298,Hispanic,Female,25,2007-01-29,7200 Brook Crest Way
Shooting,-76.675544,39.295311,White,Female,22,2007-01-31,700 Edgewood St.
Shooting,-76.607571,39.240181,Black,Male,23,2007-02-01,3500 Second Street
Shooting,-76.638573,39.310694,Black,Male,52,2007-02-02,2300 Druid Hill Ave.
Shooting,-76.604927,39.342274,Black,Male,34,2007-02-08,800 East 43rd street
Shooting,-76.583709,39.299847,Black,Male,32,2007-02-10,2400 East Madison Street
Shooting,-76.645234,39.288248,Black,Male,26,2007-02-11,1800 West Baltimore Street
Shooting,-76.652864,39.287917,Black,Male,39,2007-02-11,2300 West Baltimore
Shooting,-76.677113,39.343423,Black,Male,28,2007-02-17,3700 Oakmont Ave.
Shooting,-76.595066,39.301874,Black,Male,29,2007-02-18,1000 Branch Water Ct
Shooting,-76.594621,39.301893,Black,Male,19,2007-02-19,1000 Broadway
Shooting,-76.584805,39.294303,Black,Male,37,2007-02-19,2300 East Fayette St.
Shooting,-76.611204,39.315515,Black,Male,22,2007-02-19,2300 Barclay St.
Shooting,-76.647326,39.311964,Black,Male,27,2007-02-21,1800 Clifton Ave.
Shooting,-76.585015,39.308375,Black,Male,32,2007-02-21,1500 North Bradford St.
Shooting,-76.647097,39.30668,Black,Male,18,2007-02-23,1600 McKean Ave.
Stabbing,-76.645013,39.285221,Black,Male,21,2007-02-24,200 South Fulton ave
Shooting,-76.645809,39.297648,Black,Male,25,2007-02-26,1800 West Lanvale St.
Shooting,-76.612624,39.314416,Black,Male,17,2007-02-27,2200 Guilford Ave.
Shooting,-76.615648,39.277771,Black,Male,19,2007-03-03,100 West Hamburg St
Shooting,-76.575948,39.299104,Black,Male,20,2007-03-04,700 North Curley St
Shooting,-76.652745,39.31081,Black,Male,28,2007-03-05,2000 North Smallwood St.
Shooting,-76.670222,39.302166,Black,Male,17,2007-03-06,1115 North Ellamont St
Shooting,-76.668326,39.30245,Black,Male,37,2007-03-09,3000 Rosedale Court
Shooting,-76.648194,39.309878,Black,Male,36,2007-03-11,1900 North Monroe St.
Shooting,-76.674769,39.346773,Black,Male,40,2007-03-11,5000 Denmore Ave.
Shooting,-76.661463,39.295606,Black,Male,48,2007-03-12,2700 Harlem Ave.
Shooting,-76.535599,39.354406,Black,Male,19,2007-03-13,6500 Brook Ave.
Shooting,-76.594642,39.315233,Black,Male,17,2007-03-13,1600 Cliftview Ave.
Shooting,-76.567534,39.319077,Black,Male,18,2007-03-13,3100 Cliftmont Ave.
Shooting,-76.570641,39.344856,Black,Male,27,2007-03-13,2900 List Ave
Stabbing,-76.687493,39.282398,Black,Male,49,2007-03-14,100 Diener Place
Blunt Force,-76.549294,39.300416,White,Male,65,2007-03-15,5800 Erdman Ave.
Shooting,-76.670281,39.347934,Black,Male,21,2007-03-17,4900 Queensberry Ave
Shooting,-76.576681,39.300121,Black,Male,30,2007-03-17,2900 East Madison St
Shooting,-76.660473,39.296419,Black,Male,19,2007-03-20,2600 Rayner Ave
Shooting,-76.609483,39.341096,Black,Male,54,2007-03-20,502 East 43rd Street
Shooting,-76.624003,39.299517,Black,Male,17,2007-03-21,900 McCulloh St
Blunt Force,-76.601856,39.297212,Black,Female,39,2007-03-25,1200 Treeleaf Court
Stabbing,-76.638583,39.296901,Black,Female,18,2007-03-27,700 North Carey St.
Shooting,-76.582672,39.30477,Black,Male,17,2007-03-27,2500 East Biddle St.
Shooting,-76.540463,39.278873,Hispanic,Female,16,2007-03-30,6300 Toone St.
Shooting,-76.569438,39.293053,Black,Male,23,2007-03-30,3400 Noble St.
Shooting,-76.561814,39.368493,Black,Male,23,2007-03-30,6800 Sturbridge Drive
Shooting,-76.568454,39.367743,Black,Male,21,2007-03-31,6600 Knottwood Court
Shooting,-76.594904,39.234076,Black,Male,21,2007-04-02,3600 St Margaret St
Stabbing,-76.63401,39.281752,White,Male,39,2007-04-08,1300 West Ostend St.
Shooting,-76.676177,39.284797,Black,Male,25,2007-04-09,100 South Morley St.
Shooting,-76.578119,39.300065,Black,Male,20,2007-04-11,2800 Madison St
Stabbing,-76.612623,39.345123,Black,Male,16,2007-04-12,2600 West Coldspring Lane
Shooting,-76.643912,39.290684,Black,Male,45,2007-04-18,200 N.Mount St.
Shooting,-76.65261,39.284069,Black,Male,25,2007-04-18,300 South Bentalou St.
Shooting,-76.623167,39.253198,Black,Male,23,2007-04-19,2400 Seabury Road
Shooting,-76.601631,39.341365,White,Male,45,2007-04-20,4100 St. Georges Ave.
Shooting,-76.64685,39.286176,Black,Male,29,2007-04-22,1900 West Lombard St.
Shooting,-76.673344,39.342089,Black,Male,23,2007-04-22,3500 Woodland Ave.
Stabbing,-76.612197,39.288265,White,Male,18,2007-04-26,31 South Calvert St.
Shooting,-76.66911,39.305936,Black,Male,25,2007-04-27,1600 North Rosedale St.
Shooting,-76.568685,39.343144,Black,Male,35,2007-04-29,4700 Harford Road
Shooting,-76.541686,39.28037,Black,Male,30,2007-04-29,6200 Elliott St
Shooting,-76.693725,39.291714,Black,Male,36,2007-04-29,4600 Old Frederick Road
Shooting,-76.648511,39.285095,Black,Male,22,2007-04-29,2000 West Pratt St.
Shooting,-76.623702,39.297583,Black,Male,16,2007-04-30,500 Half Mile Court
Shooting,-76.591604,39.310787,Black,Male,24,2007-04-30,1900 East Lafayette Ave.
Shooting,-76.660273,39.328917,Black,Male,31,2007-04-30,3600 Reisterstown Road
Unknown,-76.620404,39.254057,Black,Male,18,2007-05-01,3301 Waterview Ave.
Shooting,-76.668032,39.298047,Black,Male,31,2007-05-01,900 North Rosedale St.
Shooting,-76.611136,39.314478,Black,Male,NA,2007-05-02,2200 Barclay St
Shooting,-76.643641,39.286282,Black,Male,23,2007-05-03,100 S. Mount St
Shooting,-76.637361,39.282153,Black,Male,23,2007-05-05,1300 Herkimer St
Shooting,-76.598033,39.293636,Black,Male,24,2007-05-06,200 North Spring Court
Shooting,-76.696199,39.333575,Black,Male,25,2007-05-07,3700 Woodbine Ave.
Shooting,-76.598118,39.306709,Black,Male,23,2007-05-07,1400 North Caroline St
Shooting,-76.596416,39.315647,Black,Male,26,2007-05-07,1500 Cliftview Ave.
Shooting,-76.55905,39.318043,Black,Male,23,2007-05-08,4000 Raymonn Ave.
Shooting,-76.612696,39.315826,Black,Male,17,2007-05-10,NA
Shooting,-76.587987,39.30076,Black,Male,22,2007-05-11,900 North Chester St
Shooting,-76.601985,39.314671,Black,Male,29,2007-05-12,2200 Robb St
Shooting,-76.597588,39.309494,Black,Male,29,2007-05-12,1700 North Dallas St.
Shooting,-76.598933,39.318677,Black,Male,30,2007-05-14,2500 Garrett Ave.
Shooting,-76.651071,39.281946,Black,Male,19,2007-05-15,500 South Smallwood St.
Shooting,-76.609653,39.350325,Black,Male,21,2007-05-16,5100 York Road
Shooting,-76.596624,39.28893,Black,Male,16,2007-05-17,200 North Dallas Court
Blunt Force,-76.653612,39.287899,Black,Male,22,2007-05-19,1 Gorman Ave.
Blunt Force,-76.567795,39.296297,Black,Male,35,2007-05-19,3600 Pulaski Highway
Shooting,-76.584799,39.294303,Black,Male,23,2007-05-22,2301 East Fayette St.
Shooting,-76.613934,39.313356,Black,Male,23,2007-05-22,200 East 21st St.
Shooting,-76.611988,39.304683,Black,Male,22,2007-05-22,1300 Guilford Ave.
Shooting,-76.653064,39.284737,Black,Male,18,2007-05-23,2300 Frederick Ave.
Blunt Force,-76.647936,39.305265,Black,Male,40,2007-05-23,1900 Presstman St.
Shooting,-76.580746,39.354392,Black,Male,49,2007-05-25,1900 Hillenwood Ave.
Stabbing,-76.68543,39.33975,Black,Male,52,2007-05-25,4000 Belvieu Ave.
Shooting,-76.64393,39.307232,Black,Male,31,2007-05-26,1600 Vincent Court
Shooting,-76.649099,39.296389,Black,Male,30,2007-05-26,700 North Payson St.
Shooting,-76.535064,39.332409,Black,Male,19,2007-05-26,5800 Waycross Road
Stabbing,-76.608668,39.292576,Black,Male,32,2007-05-27,200 North Gay St.
Shooting,-76.655726,39.306379,Black,Male,27,2007-05-29,1600 Moreland Ave.
Shooting,-76.645943,39.299868,Black,Male,17,2007-05-29,1800 West Mosher St.
Shooting,-76.674227,39.311024,Black,Male,18,2007-05-29,3400 Clifton Ave.
Shooting,-76.654431,39.290361,Black,Male,26,2007-05-30,2400 West Lexington St.
Shooting,-76.599438,39.313997,Black,Male,31,2007-06-01,2100 Sherwood Ave.
Stabbing,-76.640307,39.315175,Black,Female,72,2007-06-02,2600 Madison Ave.
Shooting,-76.659828,39.330675,Black,Male,24,2007-06-02,2700 Violet Ave.
Shooting,-76.647474,39.297589,Black,Male,28,2007-06-03,1900 West Lanvale St.
Blunt Force,-76.66621,39.325798,Black,Female,81,2007-06-03,3600 Rosedale Road
Shooting,-76.591931,39.325377,Black,Male,30,2007-06-05,1700 East 30th St.
Shooting,-76.618636,39.321867,Other,Male,33,2007-06-05,100 West 28th St.
Shooting,-76.587502,39.312491,Black,Male,29,2007-06-08,1900 North Collington Ave.
Shooting,-76.568089,39.314411,Black,Male,31,2007-06-08,3600 Bonview Ave.
Shooting,-76.605071,39.304962,Black,Male,32,2007-06-09,900 East Preston St.
Stabbing,-76.589815,39.291679,Black,Male,18,2007-06-10,1 South Chapel St.
Shooting,-76.652988,39.290478,Black,Female,18,2007-06-11,200 North Bentalou St.
Shooting,-76.672058,39.30505,Black,Male,44,2007-06-11,3300 Brighton St.
Shooting,-76.596766,39.320773,Black,Male,17,2007-06-12,1600 Montpelier St.
Shooting,-76.671232,39.314491,Black,Male,28,2007-06-13,2400 North Ellamont St.
Shooting,-76.671618,39.286956000000004,Black,Male,22,2007-06-13,3200 Phelps Lane
Shooting,-76.636146,39.31523,Black,Male,15,2007-06-14,2500 Linden Ave.
Shooting,-76.646773,39.285176,Black,Male,37,2007-06-15,1900 West Pratt St.
Blunt Force,-76.639488,39.24985,Black,Male,40,2007-06-16,3300 Annapolis Road
Shooting,-76.66027,39.317554,Black,Male,23,2007-06-17,2600 Fairview ave.
Shooting,-76.68753,39.30222,Black,Male,43,2007-06-17,1300 North Woodington road
Shooting,-76.671108,39.341032,Black,Male,26,2007-06-18,3400 St. Ambrose Ave.
Shooting,-76.624068,39.321284,Black,Male,21,2007-06-19,2900 Miles Ave.
Stabbing,-76.588187,39.222987,White,Male,36,2007-06-19,4800 Pennington Ave.
Shooting,-76.605058,39.325177,Black,Male,24,2007-06-21,3100 Ellerslie Ave.
Shooting,-76.6327,39.301968,Black,Male,27,2007-06-23,1500 Pennsylvania Ave.
Asphyxiation,-76.656348,39.353866,Black,Male,36,2007-06-27,2300 Cylburn Ave.
Shooting,-76.670198,39.332963,Black,Male,29,2007-06-29,4000 Cedardale Road
Shooting,-76.600229,39.289255,Black,Male,28,2007-06-30,1100 Granby St.
Shooting,-76.576973,39.348038,Black,Male,25,2007-07-01,4800 Herring Run Drive
Shooting,-76.585188,39.299805,Black,Male,21,2007-07-01,800 N. Patterson Park Ave.
Shooting,-76.612506,39.312447,Black,Male,39,2007-07-02,2000 Guilford Ave.
Shooting,-76.537282,39.323701,Black,Male,30,2007-07-02,4900 Greencrest Road
Shooting,-76.596774,39.307413,Black,Male,52,2007-07-02,1500 N. Bond St.
Shooting,-76.607642,39.302754,Black,Male,31,2007-07-02,1100 Greenmount Ave.
Stabbing,-76.595106,39.309601,Black,Female,40,2007-07-03,1700 N. Broadway
Shooting,-76.649165,39.297501,Black,Male,25,2007-07-06,800 N. Payson St.
Blunt Force,-76.568201,39.343771,White,Male,53,2007-07-07,3000 Rosekemp Ave.
Blunt Force,-76.614146,39.298662,White,Female,23,2007-07-07,800 St. Paul St.
Blunt Force,-76.689935,39.277428,Black,Male,61,2007-07-08,4400 Parkton St.
Stabbing,-76.64495,39.284275,Black,Female,15,2007-07-10,300 S. Fulton Ave.
Stabbing,-76.595218,39.289177,NA,Male,NA,2007-07-12,200 S. Herring Court
Shooting,-76.571295,39.295826,Black,Male,24,2007-07-12,400 N. Bouldin St.
Shooting,-76.667294,39.338089,Black,Male,20,2007-07-14,2800 Boarman Ave
Shooting,-76.585848,39.311003,Black,Male,25,2007-07-15,1800 N. Gay St.
Shooting,-76.536506,39.329983,Black,Male,22,2007-07-15,5700 Radecke Ave.
Shooting,-76.536506,39.329983,Black,Male,24,2007-07-15,5700 Radecke Ave.
Shooting,-76.663246,39.311442,Black,Male,26,2007-07-15,2100 Koko Lane
Shooting,-76.671108,39.341032,Black,Male,18,2007-07-17,3400 St. Ambrose Ave.
Shooting,-76.542933,39.277722,Hispanic,Male,29,2007-07-17,6100 Fortview Ave.
Shooting,-76.62814,39.247739,Black,Male,41,2007-07-18,2800 Round Road
Shooting,-76.575428,39.321451,Black,Male,17,2007-07-19,3000 Clifton Park Terrace
Blunt Force,-76.583094,39.364889,Black,Male,37,2007-07-26,1600 Waverly Way
Shooting,-76.643787,39.288325,Black,Male,30,2007-07-27,1700 W. Baltimore St.
Shooting,-76.632053,39.286862,Black,Female,42,2007-07-27,900 W. Lombard St.
Shooting,-76.649861,39.284152,Black,Male,25,2007-07-28,2100 McHenry St.
Shooting,-76.665193,39.299228,Black,Male,44,2007-07-28,2900 W. Mosher St.
Shooting,-76.694041,39.295739,Black,Male,21,2007-07-31,4600 Rokeby Road
Shooting,-76.631863,39.280061,Black,Male,20,2007-08-01,1200 Nanticoke St.
Shooting,-76.655876,39.308536,Black,Male,35,2007-08-01,2400 Westwood Ave.
Shooting,-76.651593,39.254359,Black,Male,18,2007-08-02,2400 Marbourne Ave.
Shooting,-76.567027,39.316765,Black,Male,28,2007-08-02,3700 Lyndale Ave.
Shooting,-76.609477,39.315438,Black,Male,20,2007-08-02,500 E. 23rd St.
Shooting,-76.567459,39.2914,Black,Male,27,2007-08-02,3600 E. Lombard St.
Shooting,-76.569407,39.292457,Black,Male,19,2007-08-05,1 S. Highland Ave.
Shooting,-76.582873,39.306906,Black,Male,27,2007-08-07,1400 of N. Milton Ave.
Shooting,-76.585626,39.307834,Black,Male,29,2007-08-07,2300 E. Oliver St.
Shooting,-76.671567,39.341847,Black,Male,30,2007-08-09,3400 Dupont Ave.
Shooting,-76.638724,39.299039,Black,Male,20,2007-08-11,1300 W. Lafayette Ave.
Shooting,-76.611069,39.313481,Black,Male,28,2007-08-12,2100 Barclay St.
Shooting,-76.63085,39.296156,Black,Male,27,2007-08-15,700 Brune St.
Stabbing,-76.605927,39.232693,White,Female,51,2007-08-16,4000 Fifth St.
Blunt Force,-76.597606,39.27036,White,Female,40,2007-08-18,1100 Harper Way
Shooting,-76.641149,39.310172,Black,Male,17,2007-08-18,2400 Woodbrook Ave.
Shooting,-76.640296,39.301133,Black,Male,15,2007-08-23,1400 Riggs Ave.
Shooting,-76.674782,39.320837,Black,Male,35,2007-08-25,3400 Powhatan Ave.
Shooting,-76.568468,39.292523,Black,Male,28,2007-08-26,3500 E. Baltimore St.
Shooting,-76.605137,39.311676,Black,Male,26,2007-08-26,1900 Cecil Ave.
Shooting,-76.659174,39.315648,Other,Male,18,2007-08-27,2600 Gwynns Falls Parkway
Shooting,-76.648354,39.282842,Black,Male,44,2007-08-28,400 S. Payson St.
Shooting,-76.669886,39.317879,Black,Male,23,2007-08-30,3100 Artaban Place
Shooting,-76.668359,39.302594,Black,Male,23,2007-08-30,3000 Normount Court
Shooting,-76.588351,39.292872,Black,Male,20,2007-08-31,2000 E. Fairmount Ave.
Shooting,-76.669145,39.306488,Black,Male,21,2007-09-01,1300 N. Rosedale St.
Shooting,-76.598933,39.318677,Black,Male,17,2007-09-04,2500 Garrett Ave.
NA,-76.598899,39.367481,Black,Female,60,2007-09-04,6100 Macbeth Dr.
NA,-76.598899,39.367481,Black,Female,17,2007-09-04,6100 Macbeth Dr.
Shooting,-76.639382,39.285482,Black,Male,29,2007-09-04,200 S. Calhoun St.
Shooting,-76.56958,39.317175,Black,Female,27,2007-09-10,3600 Elmley Ave.
Shooting,-76.672253,39.281203,Black,Male,20,2007-09-15,3300 Old Frederick Road
Shooting,-76.585626,39.307834,Black,Male,27,2007-09-15,2301 E. Oliver St.
Stabbing,-76.62467,39.251293,Black,Male,29,2007-09-15,2500 Terra Firma Road
Shooting,-76.572593,39.322411,Black,Male,23,2007-09-16,3400 Belair Road
Shooting,-76.572593,39.322411,Black,Male,26,2007-09-16,3400 Belair Road
Shooting,-76.640763,39.306503,Black,Male,26,2007-09-16,1500 Woodyear St.
Shooting,-76.612623,39.345123,Black,Male,24,2007-09-17,1300 E. Coldspring Lane
Shooting,-76.627822,39.246847,Black,Male,25,2007-09-17,2900 Round Road
Blunt Force,-76.581174,39.303749,Black,Male,40,2007-09-19,2600 E. Chase St.
Shooting,-76.628978,39.304722,Black,Female,16,2007-09-20,1500 Madison Ave.
Blunt Force,-76.643257,39.335441,White,Male,46,2007-09-22,1700 W. 41st Street
Blunt Force,-76.64609,39.315297,Black,Male,40,2007-09-22,2800 Parkwood Ave.
Stabbing,-76.68445,39.342139,Black,Male,37,2007-09-25,5200 Fairlawn Ave.
Shooting,-76.627068,39.323234,Black,Male,24,2007-09-25,600 Wyman Park Drive
Stabbing,-76.648226,39.296375,Black,Male,56,2007-09-26,700 Appleton St.
Shooting,-76.633882,39.298027,Black,Male,24,2007-09-28,800 N. Fremont Ave.
Shooting,-76.635327,39.311767,Black,Male,30,2007-10-05,2300 Eutaw Place
Shooting,-76.59478,39.320402,Black,Male,20,2007-10-06,1700 Homestead St.
Shooting,-76.599529,39.293969,Black,Male,35,2007-10-06,1400 May Court
Shooting,-76.595882,39.316205,Black,Male,20,2007-10-09,1600 Normal Ave.
NA,-76.675074,39.305989,Black,Male,21,2007-10-10,3400 Winterbourne Road
Shooting,-76.636015,39.288655,Black,Male,40,2007-10-11,1100 W. Baltimore St.
NA,-76.611542,39.308984,Black,Male,16,2007-10-13,1700 Latrobe St.
Shooting,-76.661051,39.33797,Black,Male,33,2007-10-14,2600 Quantico Ave.
Asphyxiation,-76.679507,39.310822,Black,Male,39,2007-10-15,2100 Allendale Road
Shooting,-76.665704,39.336123,Black,Male,47,2007-10-15,2800 Quantico Ave.
Shooting,-76.64667,39.310917,Black,Male,21,2007-10-18,1800 Walbrook Ave.
Shooting,-76.604934,39.229726,Black,Male,25,2007-10-19,4200 Audrey Ave.
Shooting,-76.6699,39.346019,Black,Male,19,2007-10-19,3100 Woodland Ave.
Shooting,-76.60073,39.235877,Black,Male,23,2007-10-25,700 E. Patapsco Ave.
Stabbing,-76.681171,39.293921,Black,Female,26,2007-10-26,600 Lyndhurst St.
Shooting,-76.532041,39.330744,Hispanic,Male,NA,2007-10-29,5900 Radecke Ave.
Shooting,-76.575498,39.359007,Black,Male,31,2007-10-30,5800 Edgepark Road
Shooting,-76.606439,39.316242,Black,Male,24,2007-10-30,700 Bartlett Ave.
Shooting,-76.610406,39.316268,Black,Male,31,2007-10-31,2400 Brentwood Ave.
Shooting,-76.668934,39.346571,Black,Male,18,2007-10-31,3000 Woodland Ave.
Shooting,-76.542301,39.278918,NA,Male,17,2007-11-02,1300 Ballard Way
Shooting,-76.577181,39.315886,NA,Male,24,2007-11-03,3300 Elmora Ave.
Shooting,-76.596298,39.301795,NA,Male,30,2007-11-04,1600 E. Eager St.
Shooting,-76.589386,39.342763,NA,Male,16,2007-11-05,1600 Lochwood Road
Shooting,-76.660419,39.336719,NA,Male,44,2007-11-08,2600 Oswego Ave.
Shooting,-76.581308,39.306427,Black,Male,22,2007-11-11,2600 Grogan Ave.
Shooting,-76.641318,39.307586,NA,Male,42,2007-11-12,700 Baker St.
Blunt Force,-76.649742,39.293735,NA,Male,39,2007-11-13,500 Brice St.
Shooting,-76.564472,39.328984,NA,Male,36,2007-11-13,4400 Belair Road
Shooting,-76.566968,39.37161,Black,Male,17,2007-11-15,7100 McClean Blvd.
Shooting,-76.665568,39.345841,Black,Male,31,2007-11-16,3000 Rosalind Ave.
Shooting,-76.703097,39.309773,Black,Male,22,2007-11-23,2100 Crimea Road
Unknown,-76.593124,39.315904,Black,Female,2,2007-11-23,1700 E. 25th St.
Shooting,-76.633736,39.287265,Black,Male,36,2007-11-23,1000 Boyd St.
Shooting,-76.655817,39.307629,Black,Male,33,2007-11-26,2400 Presbury St.
Blunt Force,-76.688842,39.348593,Black,Male,31,2007-11-28,4000 W. Rogers Ave.
Stabbing,-76.679404,39.343826,Black,Male,13,2007-11-29,5000 Cordelia Ave.
Shooting,-76.707511,39.310317,Black,Male,19,2007-12-02,N. Forest Park Ave. and Windsor Mill Road
Blunt Force,-76.663932,39.309263,Black,Male,58,2007-12-03,2800 W. North Ave.
Shooting,-76.542939,39.27802,Black,Male,24,2007-12-10,6100 Boston St.
Shooting,-76.681762,39.320131,Black,Male,24,2007-12-14,2900 Chelsea Terrace
Shooting,-76.616473,39.309822,Black,Male,20,2007-12-16,1800 N. Charles St.
Asphyxiation,-76.671049,39.310071,Black,Female,22,2007-12-18,3200 Walbrook Ave.
Shooting,-76.648137,39.261234,Black,Male,NA,2007-12-20,2300 Atlantic Ave.
Shooting,-76.638359,39.310254,Black,Male,25,2007-12-21,1300 North Ave.
Shooting,-76.649357,39.315715,NA,Male,36,2007-12-24,2400 Reisterstown Road
Shooting,-76.707924,39.354681,Black,Male,30,2007-12-24,6600 Vincent Lane
Shooting,-76.597588,39.309494,Black,Male,46,2007-12-26,1700 N. Dallas St.
Shooting,-76.59773,39.300384,Black,Male,25,2007-12-28,900 N. Caroline St.
Shooting,-76.670714,39.299724,Black,Male,20,2008-12-30,1200 N. Franklintown Road
Shooting,-76.634526,39.315371,Unknown,Male,28,2008-12-29,800 Chauncey Ave.
Shooting,-76.661535,39.294724,Unknown,Male,39,2008-12-28,2700 Edmondson Ave.
Shooting,-76.592014,39.313242,Unknown,Female,42,2008-12-26,2000 N. Wolfe St.
Shooting,-76.632332,39.295219,Unknown,Male,30,2008-12-25,900 Bennett Place
Shooting,-76.570734,39.283088,Unknown,Female,22,2008-12-23,800 S. Bouldin st.
Shooting,-76.595341,39.30968,Unknown,Male,46,2008-12-23,1700 Broadway
Shooting,-76.59903,39.323333,Unknown,Male,19,2008-12-19,1400 Homestead St.
Shooting,-76.67384,39.349183,Unknown,Male,24,2008-12-16,5100 Palmer Ave.
Shooting,-76.6897,39.345234,Unknown,Male,41,2008-12-15,5400 Fairlawn Ave.
Shooting,-76.579635,39.303988,Unknown,Male,21,2008-12-15,2700 E. Chase St
Shooting,-76.5977448,39.2304574,Unknown,Male,44,2008-12-11,1000 Jack Place
Shooting,-76.574646,39.2953204,Unknown,Male,37,2008-12-10,3000 Puaski Highway
Shooting,-76.6303754,39.2972062,Black,Male,14,2008-12-07,1100 Myrtle Ave.
Shooting,-76.67503,39.346723,Unknown,Male,24,2008-12-06,5000 Denmore Ave
Shooting,-76.620187,39.297468,White,Male,28,2008-12-06,700 N. Howard St.
Shooting,-76.5989334,39.3186767,Unknown,Male,37,2008-12-05,2500 Garrett Ave.
Shooting,-76.657924,39.326087,Unknown,Male,19,2008-12-02,3400 Park Heights Ave.
Shooting,-76.590593,39.311171,Unknown,Male,19,2008-12-01,1800 N. Washington St.
Shooting,-76.570394,39.289572,Unknown,Male,18,2008-12-01,200 S. Clinton St.
Shooting,-76.685223,39.336073,Unknown,Male,26,2008-11-30,4000 Oakford Ave. 
Shooting,-76.685223,39.336073,Unknown,Male,45,2008-11-30,4000 Oakford Ave. 
Shooting,-76.685223,39.336073,Unknown,Male,14,2008-11-30,4000 Oakford Ave. 
Shooting,-76.5673731,39.3297444,Unknown,Female,41,2008-11-30,4000 Parkside Drive
Shooting,-76.5876865,39.318218,Unknown,Male,17,2008-11-27,2800 St. Lo Drive
Shooting,-76.60095,39.370615,Black,Male,29,2008-11-26,1000 Woodson Road
Shooting,-76.6087911,39.3238626,Black,Male,26,2008-11-25,2900 Limond Place
Shooting,-76.611439,39.315606,Unknown,Male,24,2008-11-24,2300 Barclay St.
Shooting,-76.7011664,39.3116963,Unknown,Male,22,2008-11-23,2200 Tucker Lane
Shooting,-76.6173777,39.2779538,Unknown,Male,49,2008-11-23,1000 Leadenhall St.
Shooting,-76.600128,39.312067,Unknown,Male,39,2008-11-23,1300 W. North Ave.
Shooting,-76.7102679,39.3549479,Unknown,Male,39,2008-11-22,6600 Eberle Drive
Stabbing,-76.6001148,39.3118882,Black,Female,29,2008-11-21,1300 E. North Ave.
Stabbing,-76.6644465,39.3148174,Black,Male,15,2008-11-21,2800 N. Dukeland St.
Shooting,-76.6640557,39.3103257,Unknown,Male,45,2008-11-18,2000 N. Dukeland St.
Shooting,-76.6043828,39.2391968,Unknown,Male,14,2008-11-18,3500 4th St.
Shooting,-76.6028022,39.3012432,Unknown,Male,21,2008-11-18,1100 Abbott Court
Blunt Force,-76.639468,39.283225,Unknown,Male,53,2008-11-18,400 S. Calhoun St.
Shooting,-76.651279,39.281815,Unknown,Male,30,2008-11-17,500 S. Smallwood St
Shooting,-76.670855,39.346214,Unknown,Male,48,2008-11-16,4800 Palmer Ave
Blunt Force,-76.555084,39.353769,Black,Female,69,2008-11-12,3115 Mary Ave.
Shooting,-76.6019847,39.3146711,Unknown,Male,22,2008-11-12,2200 Robb St.
Shooting,-76.634453,39.312385,Unknown,Male,30,2008-11-10,2200 Linden Ave.
Shooting,-76.6362072,39.3033544,Unknown,Male,45,2008-11-07,600 Sewell St.
Blunt Force,-76.609689,39.288587,Black,Female,27,2008-11-07,100 Custom House Ave
Shooting,-76.6369663,39.2923424,Unknown,Male,39,2008-11-03,1200 W. Saratoga St
Shooting,-76.5978184,39.3017548,Unknown,Male,25,2008-11-02,1000 N. Caroline St.
Shooting,-76.6472247,39.3088343,Unknown,Male,18,2008-11-01,1800 McKean Ave
Shooting,-76.570938,39.353778,Black,Male,27,2008-10-31,2200 Echodale Ave
Shooting,-76.607041,39.33317,Unknown,Male,21,2008-10-29,600 McKewin Ave.
Shooting,-76.6578991,39.3389681,Unknown,Male,25,2008-10-25,2400 Loyola Southway
Shooting,-76.594318,39.311013,Unknown,Male,42,2008-10-25,1800 N. Regester St.
Shooting,-76.664171,39.335785,Unknown,Male,48,2008-10-23,2700 Oswego Ave.
Shooting,-76.565059,39.320988,Unknown,Male,23,2008-10-22,3500 Pelham Ave.
Shooting,-76.601787,39.320681,Black,Male,18,2008-10-22,1400 Exeter Hall Ave.
Shooting,-76.570961,39.298506,Unknown,Male,17,2008-10-21,600 N. Clinton St.
Shooting,-76.6256184,39.2996132,Unknown,Male,29,2008-10-20,500 W. Preston St.
Stabbing,-76.549069,39.3665271,Black,Male,48,2008-10-15,3000 Woodhome Ave
Shooting,-76.651469,39.284607,Black,Male,15,2008-10-14,200 S. Smallwood St.
Shooting,-76.669277,39.3091617,Unknown,Male,26,2008-10-14,1900 N. Rosedale Ave.
Shooting,-76.632022,39.301166,Unknown,Male,18,2008-10-12,1400 Pennsylvania Ave
Shooting,-76.632022,39.301166,Unknown,Male,19,2008-10-12,1400 Pennsylvania Ave
Shooting,-76.6879004,39.2872916,Unknown,Male,18,2008-10-12,4300 Davis Ave
Shooting,-76.645174,39.284196,Unknown,Male,24,2008-10-06,300 S. Fulton Ave.
Shooting,-76.654149,39.28055,Unknown,Male,38,2008-10-06,500 S. Catherine St.
Shooting,-76.668503,39.345126,Unknown,Male,23,2008-10-06,3100 Virginia Ave.
Shooting,-76.638949,39.313439,Black,Male,28,2008-10-06,2500 Madison Ave
Asphyxiation,-76.6155085,39.3194458,White,Male,1,2008-10-04,2600 St Paul St
Shooting,-76.6453843,39.2913517,Unknown,Male,32,2008-10-04,1800 Penrose Ave.
Shooting,-76.6430436,39.3090476,Unknown,Male,21,2008-10-02,700 Allegany Place
Shooting,-76.575254,39.3202765,Unknown,Male,24,2008-09-30,3100 Belair Road
Stabbing,-76.613638,39.285133,White,Female,43,2008-09-29,300 Light St.
Shooting,-76.595341,39.30968,Black,Male,29,2008-09-28,1700 N. Broadway
Shooting,-76.6830845,39.3472113,Black,Male,17,2008-09-26,5300 Cordelia Ave.
Shooting,-76.5981065,39.3174008,Black,Male,15,2008-09-24,2500 Aisquith St.
Shooting,-76.591172,39.340841,Black,Male,45,2008-09-20,1500 Havenwood Rd
Shooting,-76.6281383,39.2911977,Black,Male,24,2008-09-14,700 W. Lexington St.
Shooting,-76.586669,39.284672,Black,Male,21,2008-09-14,2100 Boston St.
Shooting,-76.582083,39.363023,Black,Male,29,2008-09-11,1600 Wadsworth Way
Shooting,-76.582653,39.300231,Black,Male,25,2008-09-09,800 N. Milton Ave.
Shooting,-76.608621,39.31294,Black,Male,23,2008-09-09,2000 Boone St.
Shooting,-76.649384,39.284691,Black,Male,23,2008-09-06,200 Harmison St
Shooting,-76.587576,39.300941,Black,Male,26,2008-09-04,2100 Ashland Ave.
Shooting,-76.6665486,39.2800358,Black,Male,20,2008-08-31,400 S. Longwood St.
Shooting,-76.6867419,39.2833549,Black,Male,24,2008-08-31,200 S Woodington St
Shooting,-76.6867419,39.2833549,Black,Female,44,2008-08-31,200 S. Woodington Road
Shooting,-76.604978,39.302821,Black,Male,23,2008-08-30,900 Valley St.
Shooting,-76.6417611,39.3033315,Black,Male,22,2008-08-27,1300 N. Stricker St.
Blunt Force,-76.584029,39.311418,Black,Male,56,2008-08-27,1800 N. Port St.
Shooting,-76.604776,39.3425,Black,Male,31,2008-08-25,800 E. 43rd St.
Shooting,-76.5843779,39.3100013,Black,Male,28,2008-08-22,2400 E. Lanvale St.
Shooting,-76.634345,39.295782,Black,Male,20,2008-08-21,1000 Edmondson Ave
Shooting,-76.677535,39.320403,Black,Male,17,2008-08-17,2900 Garrison Blvd.
Asphyxiation,-76.580878,39.330758,Black,Female,19,2008-08-15,3600 Harford Road
Shooting,-76.665723,39.349082,Black,Male,23,2008-08-14,2800 Oakley Ave
Shooting,-76.643825,39.251114,Black,Male,21,2008-08-13,2100 E. Patapsco St.
Shooting,-76.634502,39.296394,Black,Male,29,2008-08-12,1000 Brantley St
Shooting,-76.687191,39.331411,Black,Male,28,2008-08-12,4100 Barrington Road
Shooting,-76.58532,39.310086,Black,Male,30,2008-08-09,1700 N. Bradford St.
Shooting,-76.570894,39.295022,Black,Male,22,2008-08-08,3300 E. Fayette St.
Shooting,-76.6324224,39.2507678,Black,Male,38,2008-08-08,1000 Shellbanks Road
Unknown,-76.646901,39.317233,Black,Male,1,2008-08-08,3200 Auchentoroly Terrace
Shooting,-76.6070617,39.3717099,White,Male,16,2008-08-07,500 Castle Drive
Shooting,-76.6656862,39.3021632,Black,Male,19,2008-08-06,1300 Bloomingdale Road
Shooting,-76.6438996,39.2896103,Black,Male,23,2008-08-05,1700 W. Fayette St.
Shooting,-76.658225,39.3439315,Black,Male,37,2008-07-30,4700 Greenspring Ave
Shooting,-76.6017479,39.2949799,Black,Male,17,2008-07-29,1200 Orleans St.
Shooting,-76.6336952,39.2646499,Black,Male,23,2008-07-29,2700 Manokin St.
Shooting,-76.591979,39.312631,Black,Male,24,2008-07-28,1900 N. Wolfe St.
Shooting,-76.604368,39.356818,Black,Male,28,2008-07-27,5500 Ivanhoe Ave.
Shooting,-76.694784,39.342718,Black,Male,23,2008-07-25,5800 N. Rogers Ave.
Shooting,-76.694784,39.342718,Black,Male,21,2008-07-25,5800 N. Rogers Ave.
Shooting,-76.661056,39.33204,Black,Male,27,2008-07-21,3800 Park Heights Ave.
Stabbing,-76.6365852,39.2856409,Black,Female,51,2008-07-21,1200 W. Pratt St.
Shooting,-76.672638,39.288775,Black,Male,29,2008-07-21,200 N. Hilton St.
Stabbing,-76.593597,39.372135,Black,Female,23,2008-07-20,1214 Limit Ave.
Shooting,-76.633002,39.310721,Black,Male,35,2008-07-19,900 W. North Ave.
Shooting,-76.66972,39.349491,Black,Male,45,2008-07-18,5000 Pembridge Ave.
Stabbing,-76.676839,39.32605,Black,Male,17,2008-07-13,3700 Liberty Heights Ave.
Shooting,-76.578376,39.316627,Black,Male,26,2008-07-13,3200 Lyndale Ave.
Shooting,-76.661173,39.308433,Black,Male,21,2008-07-11,1800 Braddish Ave.
Unknown,-76.69208,39.290602,Black,Female,45,2008-07-07,4500 Old Frederick Road
Blunt Force,-76.596106,39.364012,Black,Female,28,2008-07-06,1100 Gleneagle Road
Shooting,-76.580884,39.306078,Black,Male,26,2008-07-06,2600 E.Preston St.
Shooting,-76.586363,39.296743,Black,Male,32,2008-06-29,2200 Jeffereson St
Asphyxiation,-76.6823356,39.329483,Black,Female,39,2008-06-27,3500 Garrison Blvd.
Blunt Force,-76.580269,39.292239,Hispanic,Male,38,2008-06-26,2600 E Baltimore St
Shooting,-76.592892,39.322119,Unknown,Male,41,2008-06-24,1700 Abbotston St. 
Shooting,-76.6363839,39.308245,Black,Male,21,2008-06-22,500 Bloom St.
Shooting,-76.6414167,39.2844169,White,Male,45,2008-06-22,300 S. Parrish St
Shooting,-76.667193,39.328505,Black,Male,23,2008-06-22,3200 Sequoia Ave
Asphyxiation,-76.63215,39.279844,White,Female,22,2008-06-22,1300 Nanticoke St.
Shooting,-76.6112074,39.2800146,Unknown,Male,24,2008-06-22,200 E. Montgomery St.
Shooting,-76.667193,39.328505,Unknown,Male,23,2008-06-22,3200 Sequoia Ave.
Shooting,-76.6098809,39.2806871,Black,Male,35,2008-06-20,800 Battery Ave.
Shooting,-76.622971,39.32066,Unknown,Male,32,2008-06-19,2800 Huntingdon Ave.
Shooting,-76.6363839,39.308245,Unknown,Male,21,2008-06-19,500 Bloom St.
Shooting,-76.647074,39.312156,Black,Male,18,2008-06-17,1800 Clifton Ave.
Shooting,-76.5978605,39.2295212,Unknown,Female,23,2008-06-17,4100 Mariban Court
Stabbing,-76.562495,39.353455,Unknown,Male,NA,2008-06-14,2900 Hamilton Ave.
Shooting,-76.564956,39.328181,Unknown,Male,23,2008-06-14,4200 Shamrock Ave.
Shooting,-76.564956,39.328181,Unknown,Male,22,2008-06-14,4200 Shamrock Ave.
Shooting,-76.669504,39.305352,Unknown,Male,30,2008-06-13,3100 Brighton St.
Shooting,-76.655882,39.304761,Unknown,Male,17,2008-06-12,1500 Moreland Ave.
Shooting,-76.655882,39.304761,Unknown,Male,17,2008-06-12,1500 Moreland Ave.
Asphyxiation,-76.638413,39.328257,White,Female,25,2008-06-11,3500 Buena Vista Ave.
Shooting,-76.6923887,39.3200103,Unknown,Male,26,2008-06-09,4500 Bonner Road
Shooting,-76.6892,39.346446,Black,Male,33,2008-06-03,4100 Rockfield Ave.
Shooting,-76.669661,39.311365,Unknown,Male,22,2008-06-02,3100 Clifton Ave.
Shooting,-76.6244323,39.2480215,Black,Male,50,2008-06-01,800 Bridgeview Road
Asphyxiation,-76.583946,39.310148,Unknown,Female,63,2008-05-28,1700 N. Port St.
Shooting,-76.603944,39.31189,Unknown,Male,19,2008-05-25,1100 E. North Ave.
Shooting,-76.595278,39.316192,Unknown,Male,22,2008-05-24,1600 Normal Ave.
Shooting,-76.594018,39.28906,Unknown,Male,37,2008-05-19,200 S. Broadway
Shooting,-76.5997714,39.2343584,Unknown,Female,18,2008-05-18,800 Pontiac Ave.
Shooting,-76.644089,39.28749,Black,Male,42,2008-05-18,1700 Hollins St. 
Shooting,-76.68671,39.297904,Black,Male,46,2008-05-16,4200 Colborne Rd.
Shooting,-76.6448245,39.3074028,Black,Male,20,2008-05-15,1600 N. Mount St.
Shooting,-76.58588,39.312729,Unknown,Male,53,2008-05-15,2300 E. North Ave.
Shooting,-76.58588,39.312729,Unknown,Male,27,2008-05-15,2300 E. North Ave.
Shooting,-76.5965295,39.2874787,Unknown,Male,NA,2008-05-14,300 S. Dallas St. 
Stabbing,-76.626219,39.287471,Black,Male,27,2008-05-11,700 W. Lombard St.
Shooting,-76.5886866,39.3227365,Unknown,Male,18,2008-05-09,2800 Hillen Road
Shooting,-76.635402,39.282385,Unknown,Male,39,2008-05-07,1200 James St.
Shooting,-76.666161,39.307428,Unknown,Male,17,2008-05-06,2900 Presbury St.
Shooting,-76.582665,39.30706,Unknown,Male,21,2008-05-05,2500 E. Hoffman St.
Blunt Force,-76.6819556,39.3447482,Unknown,Male,73,2008-05-04,3900 W. Belvedere Ave.
Shooting,-76.58748,39.295596,Unknown,Male,NA,2008-05-04,2100 Orleans St.
Shooting,-76.5745839,39.3208357,Unknown,Male,35,2008-05-04,3200 Belair Road
Shooting,-76.6592256,39.2791157,Unknown,Female,29,2008-05-03,500 S. Brunswick St.
Shooting,-76.688564,39.345893,Unknown,Male,23,2008-05-01,4100 Newbern Ave.
Shooting,-76.641502,39.294295,Black,Male,24,2008-04-21,500 N. Stricker St.
Stabbing,-76.6230265,39.324345,Unknown,Female,74,2008-04-21,200 W. 31st St.
Shooting,-76.6001791,39.2404405,Unknown,Male,25,2008-04-20,3400 Sixth St.
Blunt Force,-76.570961,39.298506,Unknown,Male,NA,2008-04-18,600 N. Clinton St. 
Shooting,-76.677535,39.320403,Unknown,Male,27,2008-04-16,2900 Garrison Blvd.
Shooting,-76.586253,39.312916,Unknown,Female,14,2008-04-14,1900 N. Patterson Park Ave.
Stabbing,-76.570961,39.298506,Black,Male,51,2008-04-13,600 N Clinton St
Shooting,-76.644126,39.290845,Black,Male,25,2008-04-12,1700 W. Lexington St.
Shooting,-76.6406643,39.2822488,Unknown,Male,20,2008-04-03,1500 Cole St.
Shooting,-76.6649765,39.2957482,Unknown,Male,NA,2008-04-01,800 N. Franklintown Road
Shooting,-76.584058,39.307008,Unknown,Male,20,2008-03-31,2400 E. Hoffman St.
Unknown,-76.621014,39.286934,Unknown,Male,6,2008-03-30,110 S. Eutaw St.
Unknown,-76.6208072,39.2873646,Unknown,Male,4,2008-03-30,111 S. Eutaw St.
Unknown,-76.6207824,39.2869263,Unknown,Female,2,2008-03-30,112 S. Eutaw St.
Shooting,-76.685958,39.348463,Black,Male,19,2008-03-30,5400 Nelson Ave.
Stabbing,-76.5971491,39.302679,Black,Male,27,2008-03-30,1000 Billie Holiday Court
Shooting,-76.6459319,39.2861854,Black,Male,19,2008-03-27,100 Addison St.
Blunt Force,-76.572587,39.288325,White,Male,28,2008-03-26,300 S. Robinson St
Shooting,-76.6406712,39.2833299,Unknown,Male,36,2008-03-24,400 S. Stricker St.
Shooting,-76.674229,39.273116,Black,Male,18,2008-03-23,3400 Wilkens Ave.
Shooting,-76.566643,39.31552,Black,Male,21,2008-03-23,3700 Ravenwood Ave.
Shooting,-76.621316,39.292088,Black,Male,29,2008-03-22,200 N. Eutaw St.
Asphyxiation,-76.6791329,39.306982,Unknown,Female,36,2008-03-20,3600 Winterbourne Road
Shooting,-76.677535,39.320403,Unknown,Male,18,2008-03-15,2900 Garrison Blvd.
Shooting,-76.669277,39.3091617,Unknown,Male,22,2008-03-14,1900 N. Rosedale St.
Unknown,-76.621461,39.295055,Black,Female,41,2008-03-14,400 W Franklin St
Shooting,-76.6287272,39.2470012,Black,Male,22,2008-03-13,2800 Spelman Road
Shooting,-76.659853,39.341711,Unknown,Male,16,2008-03-11,2500 Edgecombe Circle N.
Shooting,-76.590542,39.324062,Black,Male,36,2008-03-10,1800 E. 28th St.
Asphyxiation,-76.64691,39.28412,Black,Male,1,2008-03-09,300 S. Monroe St.
Shooting,-76.68427,39.295825,Black,Male,35,2008-03-09,700 Wildwood Parkway
Shooting,-76.6966047,39.2853643,Unknown,Female,30,2008-03-07,200 Atholgate Lane
Stabbing,-76.6304902,39.3166902,Black,Male,45,2008-03-04,700 Druid Park Lake Drive
Shooting,-76.663002,39.298326,Unknown,Male,35,2008-03-03,2800 W. Lafayette Ave.
Shooting,-76.67503,39.346723,Black,Male,29,2008-03-01,5000 Denmore Ave.
Shooting,-76.6656862,39.3021632,Black,Male,44,2008-02-29,1300 Bloomingdale Road
Shooting,-76.623116,39.309219,Unknown,Male,32,2008-02-27,1500 Mount Royal Ave.
Shooting,-76.622888,39.309703,Unknown,Female,16,2008-02-27,1501 Mount Royal Ave.
Shooting,-76.6279941,39.3107321,Unknown,Male,23,2008-02-25,700 W. North Ave.
Shooting,-76.582893,39.30402,Unknown,Male,23,2008-02-24,1100 N. Milton Ave.
Shooting,-76.588412,39.304014,Unknown,Male,48,2008-02-20,1100 N. Chester St.
Shooting,-76.624714,39.279062,Black,Male,20,2008-02-19,1000 Russell St.
Shooting,-76.673245,39.342917,Black,Female,15,2008-02-16,3400 Woodland Ave.
Stabbing,-76.690933,39.321655,Black,Female,31,2008-02-15,4400 Fairview Ave.
Shooting,-76.5917015,39.3476883,Black,Male,22,2008-02-15,1500 Pentridge Road
Shooting,-76.629116,39.309264,Black,Female,25,2008-02-07,1800 Bolton St.
Shooting,-76.682718,39.292573,Black,Male,22,2008-02-07,500 N. Loudon Ave.
Shooting,-76.596395,39.308647,Black,Male,19,2008-02-02,1600 E. Federal St.
Shooting,-76.643456,39.299087,Black,Male,62,2008-02-02,1600 W. Lafayette
Shooting,-76.5669811,39.3684818,Black,Male,27,2008-01-30,2300 E. Northern Parkway
Shooting,-76.641869,39.301215,Black,Male,25,2008-01-25,1100 N. Stricker St.
Shooting,-76.649397,39.298873,Black,Male,24,2008-01-25,2000 W. Lafayette Ave.
Shooting,-76.6263153,39.2967671,Black,Male,31,2008-01-25,900 Pennsylvania Ave.
Shooting,-76.603367,39.307229,Black,Male,20,2008-01-19,1500 Holbrook St.
Shooting,-76.590694,39.322161,Black,Male,24,2008-01-17,2700 Tivoly Ave.
Shooting,-76.565891,39.319462,Black,Male,19,2008-01-17,3500 Cliftmont Ave.
Blunt Force,-76.573673,39.32687,Unknown,Female,38,2008-01-16,2700 Pelham Ave.
Shooting,-76.6208496,39.2452903,Black,Male,14,2008-01-14,800 Bethune Road
Stabbing,-76.61096,39.318243,Black,Male,18,2008-01-12,400 E. 25th St.
Shooting,-76.594004,39.3285346,Black,Male,18,2008-01-09,1500 E. 33rd St.
Shooting,-76.667701,39.309308,Black,Male,30,2008-01-08,3000 W. North Ave.
Shooting,-76.572556,39.325229,Black,Male,32,2008-01-04,2800 Kentucky Ave.
Shooting,-76.6208496,39.2452903,Black,Male,28,2008-01-01,800 Bethune Road
NA,NA,NA,NA,NA,NA,NA,NA
Stabbing,-76.569676,39.291747,White,Male,56,2009-12-31,12 S. Highland Ave
Shooting,-76.6790198,39.3361374,Black,Male,19,2009-12-30,3800 Oakford Ave
Shooting,-76.6095256,39.315461,Black,Male,38,2009-12-29,2300 Greenmount Avenue
Shooting,-76.576901,39.299167,Black,Male,44,2009-12-27,700 N. Linwood Ave
Shooting,-76.6281372,39.2912188,Black,Male,53,2009-12-26,700 W. Lexington St
Shooting,-76.7077698,39.3603092,White,Male,56,2009-12-26,6900 Reisterstown Road
Shooting,-76.5914899,39.289492,White,Male,21,2009-12-26,1800 E. Pratt
Asphyxiation,-76.591443,39.309909,Black,Female,27,2009-12-24,1900 E. Lanvale St
Shooting,-76.6019537,39.2991602,Black,Male,19,2009-12-22,800 Aisquith St
Shooting,-76.6980143,39.2761689,Black,Male,22,2009-12-20,600 S. Wickham Rd
Shooting,-76.697733,39.3359993,Black,Male,28,2009-12-20,5000 Belle Ave
Blunt Force,-76.572594,39.325194,Black,Female,1,2009-12-19,2800 Kentucky Ave
Stabbing,-76.5970344,39.3121138,Black,Male,20,2009-12-18,1600 E. North Ave.
Shooting,-76.606219,39.316306,Black,Male,35,2009-12-16,700 Bartlett Ave
Shooting,-76.695737,39.33169,Black,Male,29,2009-12-12,4700 Liberty Heights Ave.
Shooting,-76.6563598,39.3365079,Black,Male,27,2009-12-12,2400 Shirley Ave
Shooting,-76.577063,39.324274,Black,Male,32,2009-12-12,3300 Woodstock Ave
Shooting,-76.639228,39.309564,Black,Male,39,2009-12-11,2300 Etting St
Blunt Force,-76.602088,39.355619,Black,Female,59,2009-12-08,5500 Midwood Ave
Shooting,-76.599197,39.305348,Black,Male,32,2009-12-08,1400 E. Preston St
Shooting,-76.578853,39.29594,Black,Male,20,2009-12-05,2700 Orleans St
Blunt Force,-76.602088,39.355619,Unknown,Female,17,2009-12-03,5500 Midwood Ave
Shooting,-76.58624,39.294463,Unknown,Male,42,2009-12-03,2200 E. Fayette St
Shooting,-76.6678869,39.338083,Black,Male,26,2009-12-03,2800 Boarman Ave
Blunt Force,-76.5354829,39.3436425,White,Male,66,2009-12-02,4700 Glenarm
Shooting,-76.638166,39.312525,Black,Male,37,2009-11-30,1100 Whitelock St
Shooting,-76.6388208,39.3001926,Black,Male,26,2009-11-30,1000 n. carey st
Shooting,-76.620279,39.296784,White,Male,52,2009-11-30,600 N Howard St
Shooting,-76.616463,39.276736,Black,Male,45,2009-11-30,100 W Cross St
Shooting,-76.6373813,39.3090446,Black,Male,36,2009-11-25,500 Gold St
Shooting,-76.6286167,39.2464804,Black,Male,21,2009-11-25,2800 Spelman
Stabbing,-76.6375575,39.3025338,Black,Male,57,2009-11-25,1200 Winchester St
Blunt Force,-76.654949,39.29504,Black,Male,62,2009-11-25,2400 Edmondson Ave
Shooting,-76.5979301,39.3241816,Black,Male,28,2009-11-24,1400 Carswell St
Shooting,-76.576504,39.3051,Black,Male,23,2009-11-22,1200 n. curley
Shooting,-76.573614,39.298263,Black,Male,22,2009-11-20,3100 McElderry ST
Shooting,-76.647494,39.3125659,Black,Female,34,2009-11-19,2140 N. Fulton Ave
Blunt Force,-76.608153,39.3015339,Black,Female,35,2009-11-17,600 E. Eager St
Shooting,-76.591443,39.309909,Black,Male,18,2009-11-15,1900 E Lanvale St
Shooting,-76.677657,39.320362,Black,Male,NA,2009-11-15,2900 Garrison Blvd
Shooting,-76.628698,39.286723,Black,Male,45,2009-11-14,800 lemmon st
Shooting,-76.637266,39.310471,Black,Male,36,2009-11-14,1200 W North Ave
Shooting,-76.681424,39.343159,Hispanic,Male,35,2009-11-13,5100 arbutus ave
Shooting,-76.649386,39.297681,Black,Male,51,2009-11-12,2000 W Lanvale
Shooting,-76.6774114,39.2966098,Unknown,Male,38,2009-11-12,3600 gelston dr
Stabbing,-76.583853,39.307508,Black,Male,15,2009-11-10,2400 Llewelyn ave
Shooting,-76.657136,39.320411,Black,Male,46,2009-11-09,3000 towanda ave
Shooting,-76.6179873,39.3121783,Black,Male,25,2009-11-08,100 W. 20th st
Shooting,-76.6485749,39.2860313,Black,Male,40,2009-11-07,100 s. payson st
Shooting,-76.5620746,39.3705448,Black,Male,31,2009-11-03,2400 pickering dr
Shooting,-76.6382449,39.2897946,Black,Male,28,2009-11-03,1300 W Fayette St
Stabbing,-76.642045,39.296041,Black,Male,30,2009-10-30,1500 Edmondson Ave
Shooting,-76.592088,39.313246,Black,Male,24,2009-10-29,2000 N wolfe St
Shooting,-76.6002648,39.2334138,Unknown,Male,20,2009-10-29,800 Washburn Ave
Stabbing,-76.5984332,39.3218559,Black,Male,24,2009-10-25,1500 Montpelier St
Shooting,-76.5996599,39.2932733,Black,Male,38,2009-10-21,100 N. Central Ave
Blunt Force,-76.5783352,39.2810681,White,Male,54,2009-10-19,1000 S Lakewood Ave
Shooting,-76.636732,39.2876325,Black,Male,21,2009-10-18,1200 Hollins St
Shooting,-76.6741626,39.3099361,Black,Male,31,2009-10-15,2000 Denison St
Shooting,-76.65633,39.306502,Black,Male,34,2009-10-14,2400 Baker St
Shooting,-76.560128,39.317713,Black,Male,28,2009-10-14,3900 Elmora Ave
Shooting,-76.674243,39.2888702,Black,Male,31,2009-10-13,3200 W Lexington St
Shooting,-76.67988,39.324785,Black,Male,35,2009-10-11,3700 Springdale Ave
Shooting,-76.578264,39.299108,Black,Male,26,2009-10-10,700 N Kenwood Ave
Shooting,-76.6061735,39.3116541,Black,Male,37,2009-10-10,1900 Oakhill Ave
Shooting,-76.608243,39.319685,Black,Male,39,2009-10-07,2600 Mathews St
Shooting,-76.682538,39.283711,Black,Male,18,2009-10-03,4000 Massachusetts Ave
Asphyxiation,-76.6099175,39.3586226,Hispanic,Female,30,2009-10-02,500 Benninghaus Rd
Shooting,-76.649409,39.297812,Black,Male,17,2009-10-02,800 N Payson St
Other,-76.6657369,39.303618,Black,Female,85,2009-09-29,1400 Poplar Grove St
Shooting,-76.645387,39.28494,Black,Male,26,2009-09-26,1800 Dover Ct
Shooting,-76.684222,39.32502,Black,Female,37,2009-09-26,3901 W. Forest Park Ave
Stabbing,-76.5888111,39.3143431,Black,Female,31,2009-09-25,2100 Sinclair Ln
Shooting,-76.642055,39.2631506,Black,Male,31,2009-09-20,2400 Maisel Ct
Shooting,-76.5882525,39.2237802,White,Male,20,2009-09-18,1600 Cypress St
Shooting,-76.6613884,39.2945578,Black,Male,50,2009-09-18,600 Ashburton St
Shooting,-76.569971,39.318944,Unknown,Male,24,2009-09-16,3400 Cliftmont Ave
Shooting,-76.6354238,39.3074724,Black,Male,31,2009-09-14,500 Presstman St
Shooting,-76.6664166,39.3396529,Black,Male,45,2009-09-13,2700 w. cold spring ln
Shooting,-76.616268,39.276807,Black,Male,35,2009-09-13,100 W Cross St
Shooting,-76.6346288,39.3080434,Black,Male,18,2009-09-13,2000 McCulloh St
Shooting,-76.5746013,39.3208479,Black,Male,30,2009-09-11,3200 Belair Road
Shooting,-76.5669736,39.3684989,Black,Male,20,2009-09-11,2300 E Northern Parkway
Shooting,-76.6095312,39.3479503,Unknown,Male,17,2009-09-10,500 Radnor Ave
Shooting,-76.638687,39.294455,Black,Male,43,2009-09-09,500 N Carey ST
Shooting,-76.628969,39.295224,Black,Male,47,2009-09-09,700 Murphy Lane
Blunt Force,-76.579456,39.301255,Black,Male,47,2009-09-08,2700 Ashland Ave
Shooting,-76.6651032,39.3403571,Black,Male,29,2009-09-04,4400 Pimlico Road
Shooting,-76.5883263,39.2245532,White,Male,23,2009-09-04,1600 Elmtree St
Shooting,-76.6433395,39.3054357,Black,Male,25,2009-09-04,1600 Presstman St
Shooting,-76.646807,39.310275,Black,Male,32,2009-09-01,1900 N. Fulton St
Shooting,-76.667444,39.304753,Black,Male,38,2009-09-01,3000 Presstman St
Unknown,-76.588419,39.226279,White,Male,48,2009-08-28,1600 Hazel St
Shooting,-76.6374949,39.3059209,Black,Male,24,2009-08-27,598 Presstman St
Shooting,-76.5776274,39.3070928,Black,Female,37,2009-08-27,1400 Kenhill Ave
Shooting,-76.578376,39.316627,Black,Male,28,2009-08-26,3200 Lyndale Ave
Shooting,-76.6825974,39.3274907,Black,Male,40,2009-08-25,3900 Liberty Heights Ave
Shooting,-76.688294,39.275513,Black,Male,21,2009-08-22,600 Yale Ave
Shooting,-76.586363,39.296743,Black,Male,31,2009-08-21,2200 Jefferson St
Shooting,-76.569031,39.290291,Black,Male,25,2009-08-20,125 S Highland Ave
Shooting,-76.6896156,39.3334346,Black,Male,25,2009-08-20,4200 Belle Ave
Shooting,-76.579998,39.308234,Black,Male,20,2009-08-11,2700 E Oliver St
Shooting,-76.5952338,39.2891766,Black,Male,32,2009-08-10,200 S. Herring Court
Shooting,-76.622824,39.2500661,Black,Male,18,2009-08-09,600 Cherry Hill Road
Shooting,-76.650696,39.295223,Black,Male,25,2009-08-02,2100 Edmondson Ave
Shooting,-76.678701,39.296599,Black,Male,18,2009-08-02,800 Allendale St
Shooting,-76.6611086,39.3432818,Black,Female,64,2009-08-02,2800 Edgecombe circle north
Blunt Force,-76.647847,39.298946,Black,Male,26,2009-08-01,1900 W Lafayette Ave
Stabbing,-76.6225073,39.2928037,Black,Male,18,2009-08-01,300 N Paca St
Shooting,-76.658791,39.279969,Black,Male,39,2009-07-31,500 E. Lynn Ave
Shooting,-76.568711,39.295106,Black,Male,19,2009-07-26,3500 E Fayette St
Shooting,-76.567953,39.295343,Black,Male,18,2009-07-26,200 N Conkling St
Shooting,-76.56684,39.312213,Black,Female,26,2009-07-25,4217 Erdman Ave
Shooting,-76.5528357,39.2851584,Hispanic,Male,26,2009-07-25,5100 Foster Ave
Shooting,-76.674216,39.340775,Black,Male,33,2009-07-23,3600 Woodland AVe
Shooting,-76.578324,39.299119,Black,Male,16,2009-07-19,700 N Kenwood Ave
Shooting,-76.5835943,39.3299625,Black,Male,25,2009-07-16,3400 Lake Montebello Drive
Shooting,-76.5924273,39.2856158,White,Female,48,2009-07-14,500 S Regester St
Shooting,-76.607777,39.338209,Black,Male,38,2009-07-13,4000 Old York Road
Shooting,-76.594341,39.326205,Black,Male,28,2009-07-13,2900 The Alameda
Shooting,-76.589357,39.369773,Black,Male,36,2009-07-13,6200 Falkirk Road
Shooting,-76.576421,39.29815,Black,Male,21,2009-07-09,2900 McElderry St
Shooting,-76.633775,39.304295,Black,Male,18,2009-07-08,1700 Division St
Shooting,-76.683248,39.322165,Black,Male,21,2009-07-08,3900 Fairfax Road
Shooting,-76.6494826,39.2887828,Black,Male,23,2009-07-03,2100 W Fairmount Ave
Shooting,-76.5962979,39.3017949,Black,Male,24,2009-06-30,1600 E Eager St
Stabbing,-76.6547782,39.2948082,Black,Male,21,2009-06-30,600 N. Wheeler St
Shooting,-76.651658,39.305981,Black,Male,28,2009-06-29,2100 Brighton St
Shooting,-76.674582,39.322075,Black,Male,36,2009-06-28,3400 Fairview Ave
Stabbing,-76.66754,39.306115,Black,Male,52,2009-06-27,3000 Baker St
Stabbing,-76.66754,39.306115,Black,Male,48,2009-06-27,3000 Baker St
Shooting,-76.5958585,39.2875062,Black,Male,19,2009-06-24,300 Mason Court
Blunt Force,-76.615101,39.309955,Black,Male,39,2009-06-24,1800 St. Paul St
Asphyxiation,-76.7011664,39.3116963,Black,Female,51,2009-06-23,2200 Tucker Lane
Shooting,-76.591225,39.31116,Black,Male,29,2009-06-21,1800 N Chapel St
Shooting,-76.585269,39.308025,Black,Male,39,2009-06-20,2300 E Oliver St
Shooting,-76.5791337,39.29452,Hispanic,Male,36,2009-06-19,2700 E Fayette St
Stabbing,-76.607844,39.356672,Black,Male,19,2009-06-18,600 Tunbridge Road
Shooting,-76.661355,39.309841,Black,Male,24,2009-06-17,1900 Braddish Ave
Shooting,-76.649978,39.307901,Black,Male,21,2009-06-10,1700 N Payson
Stabbing,-76.5549544,39.3390501,Black,Female,31,2009-06-10,4000 Biddison Lane
Stabbing,-76.5549544,39.3390501,Black,Female,23,2009-06-10,4000 Biddison Lane
Shooting,-76.581671,39.30918,Black,Male,21,2009-06-08,2526 E. Federal St
Stabbing,-76.6361814,39.3159908,Black,Male,44,2009-06-07,900 Brooks Lane
Shooting,-76.545752,39.277096,Hispanic,Male,21,2009-06-03,1400 Anglesea St
Shooting,-76.618444,39.235194,White,Male,41,2009-06-02,NA
Shooting,-76.609771,39.341091,Black,Male,60,2009-05-31,4300 York Road
Shooting,-76.5683771,39.3483622,Black,Male,39,2009-05-30,2800 Alisa Ave
Shooting,-76.583206,39.298057,Black,Male,35,2009-05-30,600 N Port St
Shooting,-76.620603,39.287865,Black,Male,32,2009-05-28,15 S Eutaw St
Shooting,-76.636183,39.31053,Black,Male,32,2009-05-27,1100 W North Ave
Shooting,-76.5863799,39.2942887,Unknown,Male,25,2009-05-27,200 N. Collington Ave
Shooting,-76.575451,39.319627,Black,Male,24,2009-05-25,3102 Cliftmont Ave
Shooting,-76.570522,39.293149,Black,Male,26,2009-05-25,3300 Noble St
Shooting,-76.5888111,39.3143431,Black,Male,41,2009-05-24,2100 Sinclair Lane
Shooting,-76.590542,39.324062,Black,Male,18,2009-05-24,1800 E. 28th St
Shooting,-76.637162,39.292439,Black,Female,18,2009-05-23,300 N Carrollton Ave
Shooting,-76.647028,39.286961,Black,Male,28,2009-05-21,1900 Frederick Ave
Shooting,-76.5905651,39.3143289,Black,Male,26,2009-05-21,2700 Saint Lo Drive
Blunt Force,-76.711296,39.362705,Hispanic,Male,84,2009-05-17,7000 Reisterstown Road
Shooting,-76.604494,39.313129000000004,Black,Male,32,2009-05-09,2000 Kennedy Ave
Shooting,-76.569968,39.338512,Black,Male,23,2009-05-08,3100 Montebello Terrace
Shooting,-76.669776,39.313391,Black,Male,24,2009-05-08,2300 N Rosedale St
Shooting,-76.607533,39.334858,White,Male,48,2009-05-05,601 Parkwyrth Ave
Shooting,-76.672216,39.280937,Black,Male,25,2009-05-03,3300 Frederick Ave
Shooting,-76.582393,39.299923,Unknown,Male,26,2009-05-02,800 N Milton Ave
Shooting,-76.651191,39.281932,Black,Male,18,2009-04-27,500 S. Smallwood
Blunt Force,-76.576257,39.323453,White,Male,53,2009-04-25,2800 Erdman Ave
Shooting,-76.670241,39.302297,Black,Male,17,2009-04-25,3200 Normount Ave
Shooting,-76.5962979,39.3017949,Black,Male,28,2009-04-23,1600 E. Eager St
Blunt Force,-76.689093,39.274788,Black,Female,54,2009-04-21,700 Yale Ave
Shooting,-76.559028,39.341685,Black,Male,23,2009-04-21,5100 Hillburn Ave
Shooting,-76.66966,39.312433,Black,Male,24,2009-04-21,3100 Windsor Ave
Shooting,-76.593733,39.315424,Black,Male,78,2009-04-18,1700 Cliftview Ave
Stabbing,-76.571169,39.293131,Hispanic,Male,23,2009-04-18,16 N. Clinton St
Shooting,-76.653451,39.288958,Black,Male,28,2009-04-15,41 Gorman Ave
Shooting,-76.601131,39.310644,Black,Male,63,2009-04-15,1800 Aiken St
Shooting,-76.6494567,39.2818423,White,Male,31,2009-04-13,2100 Christian St
Shooting,-76.629514,39.2458567,Black,Male,22,2009-04-11,2800 Winwood Court
Shooting,-76.64678,39.28227,Black,Male,16,2009-04-08,1900 Wilkens Ave
Shooting,-76.5934741,39.287624,Black,Female,42,2009-04-05,1700 Gough St
Shooting,-76.555895,39.321648,Black,Male,31,2009-04-05,4700 Homesdale Ave
Shooting,-76.5879692,39.3427762,Black,Male,23,2009-04-04,4200 Welbourne Road
Stabbing,-76.6255592,39.301559,Black,Male,48,2009-04-03,400 Watty Court
Shooting,-76.59983,39.315516,Black,Male,20,2009-04-02,1200 Bonaparte Ave
Shooting,-76.565402,39.317174,Black,Male,28,2009-04-01,3800 Lyndale Ave
Shooting,-76.680942,39.32025,Black,Male,19,2009-04-01,2900 Allendale Road
Shooting,-76.641708,39.289854,Black,Male,20,2009-03-31,1500 W. Fayette St
Shooting,-76.631953,39.305669,Black,Male,20,2009-03-29,1700 McCulloh St
Shooting,-76.6279941,39.3107321,Black,Male,29,2009-03-26,700 W. North Ave
Shooting,-76.5754977,39.3590072,Black,Male,23,2009-03-26,5800 Edgepark Road
Shooting,-76.5736537,39.2970731,Black,Female,23,2009-03-23,500 N Ellwood Ave
Shooting,-76.6266937,39.2417848,Black,Male,26,2009-03-22,600 W. Patapsco Ave
Shooting,-76.6378769,39.2627951,Black,Male,20,2009-03-21,2600 Maisel St
Stabbing,-76.5325877,39.2614985,White,Male,24,2009-03-17,6500 Cleveland Ave
Shooting,-76.609589,39.323806,Black,Male,24,2009-03-17,2900 Greenmount Ave
Shooting,-76.609589,39.323806,Black,Male,20,2009-03-17,2900 Greenmount Ave
Shooting,-76.651551,39.310083,Black,Male,35,2009-03-14,1900 Pulaski St
Shooting,-76.681667,39.291754,Black,Male,22,2009-03-13,400 Normandy Ave
Shooting,-76.569243,39.292673,Black,Male,22,2009-03-08,3400 E. Baltimore St
Shooting,-76.620988,39.298645,Black,Female,25,2009-03-07,800 Linden Ave
Shooting,-76.565802,39.29114,Black,Male,17,2009-03-06,100 S. Eaton St
Shooting,-76.6219756,39.3110077,Black,Male,25,2009-03-05,300 W. North Ave
Stabbing,-76.6366349,39.3267667,Black,Male,29,2009-03-01,1500 Clipper Road
Stabbing,-76.635961,39.296887,Black,Male,68,2009-02-26,700 N Arlington Ave
Shooting,-76.660466,39.340099,Black,Male,21,2009-02-22,2500 Loyola Northway
Stabbing,-76.568003,39.286763,Hispanic,Male,26,2009-02-22,3500 Eastern Ave
Shooting,-76.656603,39.28793,Black,Male,32,2009-02-21,2500 W Baltimore St
Shooting,-76.592744,39.356642,Black,Male,24,2009-02-16,5600 Sagra Road
Stabbing,-76.6111056,39.2354259,White,Male,23,2009-02-16,3900 S. Hanover St.
Shooting,-76.5591515,39.306912,Black,Male,30,2009-02-14,5000 Erdman Ave
Stabbing,-76.549938,39.356437,White,Male,62,2009-02-12,6100 Glenoak Ave
Shooting,-76.591896,39.327012,Black,Male,34,2009-02-11,1700 E. 32nd St
Shooting,-76.65135,39.307958,Black,Male,20,2009-02-10,2100 Presbury St
Asphyxiation,-76.6182992,39.2404142,Black,Male,26,2009-02-09,200 W. Patapsco Ave
Shooting,-76.595368,39.3219,Black,Male,47,2009-02-04,1600 Gorsuch Ave
Shooting,-76.6946373,39.3019334,Black,Male,37,2009-02-04,4600 N Franklintown Rd
Shooting,-76.590499,39.309879,Black,Male,22,2009-02-04,1700 N Washington St
Stabbing,-76.6170112,39.2640504,Black,Male,38,2009-02-01,200 W Dickman St
Shooting,-76.650696,39.295223,Black,Male,44,2009-01-30,2100 Edmondson Ave
Shooting,-76.665327,39.298162,Black,Male,46,2009-01-29,900 Poplar Grove
Shooting,-76.550038,39.320501,Black,Male,17,2009-01-28,4900 Aberdeen Ave
Shooting,-76.667891,39.312496,Black,Female,24,2009-01-27,3000 Windsor Ave
Shooting,-76.5959012,39.2935881,White,Male,47,2009-01-26,200 N. Bond St
Shooting,-76.671516,39.340225,Unknown,Male,14,2009-01-25,4600 Reisterstown Rd
Shooting,-76.636623,39.279241,Black,Male,26,2009-01-17,1200 Bayard St
Shooting,-76.7084473,39.2828354,Black,Male,56,2009-01-14,5400 Jamestowne Court
Shooting,-76.7013446,39.3116273,Black,Male,23,2009-01-09,5000 Dickey Hill Road
Shooting,-76.567323,39.291586,Black,Male,20,2009-01-09,3600 E. Lombard St.
Shooting,-76.5964321,39.3021235,Black,Male,35,2009-01-07,1000 N Bond St
Shooting,-76.6042319,39.3005581,Asian,Male,51,2009-01-06,800 Webb Court
Stabbing,-76.549224,39.371915,White,Male,45,2009-01-06,2800 Clearview Ave.
Shooting,-76.660525,39.328904,Black,Male,21,2009-01-05,3600 Reisterstown Road
Shooting,-76.578385,39.300176,Black,Male,17,2009-01-05,800 N. Kenwood Ave
Shooting,-76.5562923,39.3377106,Black,Male,20,2009-01-04,4000 Chesmont Ave.
Shooting,-76.5894338,39.3582762,Black,Male,16,2009-01-04,5604 Loch Raven Blvd.
Shooting,-76.589872,39.357749,Black,Female,15,2009-01-04,5600 Loch Raven Blvd.
Shooting,-76.6030256,39.2949307,Black,Male,20,2009-01-02,1100 Orleans St.
Shooting,-76.6028911,39.2949357,Black,Male,22,2009-01-02,1104 Orleans St.
Shooting,-76.581141,39.299224,Black,Male,31,2009-01-02,700 N. Luzerne Ave.
Shooting,-76.5837935,39.2980323,Black,Male,50,2010-12-31,600 N Montford Ave
Shooting,-76.5608432,39.3515737,Unknown,Male,25,2010-12-29,5500 Richard Ave
Shooting,-76.650328,39.286599,Black,Male,20,2010-12-26,2100 Boyd St
Shooting,-76.687246,39.336925,Black,Male,23,2010-12-25,4100 Ridgewood Ave
Shooting,-76.6616705,39.2993098,Black,Male,14,2010-12-23,1000 ashburton st
Shooting,-76.6077905,39.3232279,Black,Male,43,2010-12-22,2900 Mathews st
Shooting,-76.566685,39.291073,Hispanic,Male,29,2010-12-22,3700 Mt. Pleasant Ave
Shooting,-76.606675,39.365945,Black,Male,23,2010-12-18,6000 Majorie Ln
Unknown,-76.5905329,39.324831,Black,Female,42,2010-12-18,1800 29th St
Shooting,-76.579359,39.293326,Hispanic,Male,26,2010-12-18,100 N. Lakewood Ave
Asphyxiation,-76.599048,39.323319,Black,Male,30,2010-12-18,1400 Homestead St
Shooting,-76.5737053,39.299284,Black,Female,38,2010-12-18,3100 Monument St
Other,-76.648311,39.310034,Black,Female,1,2010-12-17,1900 W. North Ave.
Shooting,-76.669111,39.299305,White,Female,25,2010-12-12,1300 N. Franklintown Rd
Shooting,-76.672459,39.342404,Black,Male,24,2010-12-10,3400 Virigina Ave
Shooting,-76.6656913,39.3081958,Black,Male,20,2010-12-08,2800 Westwood Ave
Shooting,-76.590478,39.354425,Black,Male,22,2010-12-07,5300 Loch Raven Blvd
Shooting,-76.588982,39.32566,Black,Male,26,2010-12-03,1900 E. 30th St
Other,-76.609774,39.316378,Black,Female,45,2010-12-03,2400 Greenmount Ave
Shooting,-76.648711,39.284716,Black,Male,15,2010-12-01,200 S. Payson St.
Stabbing,-76.694148,39.339999,Black,Male,61,2010-11-26,4400 Belvieu Ave
Stabbing,-76.644925,39.281213,Black,Male,28,2010-11-24,1800 Eagle St
Blunt Force,-76.557939,39.3253253,Black,Male,29,2010-11-24,4400 Plainfield Ave
Shooting,-76.6827349,39.291748,Black,Male,24,2010-11-23,400 N. Loudon Ave
Stabbing,-76.5673518,39.3182316,White,Male,19,2010-11-23,3500 Juneway
Shooting,-76.6025211,39.3095194,Black,Female,28,2010-11-21,1700 Aisquith St
Shooting,-76.6938795,39.2934379,Black,Male,19,2010-11-20,4600 Edmonson Ave
Shooting,-76.6655294,39.3046231,Black,Male,29,2010-11-19,1500 Poplar Grove St
Shooting,-76.5543899,39.3198085,Black,Male,52,2010-11-18,4700 Haldane Rd
Shooting,-76.649386,39.297681,Black,Male,20,2010-11-17,2000 W. Lanvale St
Stabbing,-76.571831,39.287335,Black,Male,19,2010-11-13,400 SE Ave
Shooting,-76.6470949,39.288383,Black,Male,34,2010-11-13,1900 W. Baltimore St
Shooting,-76.593379,39.337938,Black,Male,25,2010-11-09,1500 Roundhill Rd
Shooting,-76.6301419,39.2911294,Black,Male,21,2010-11-06,800 W. Lexington St
Shooting,-76.6386813,39.2855492,Black,Male,31,2010-11-04,200 S. Woodyear St
Stabbing,-76.5699274,39.3712305,Black,Male,21,2010-11-04,7000 McClean Blvd
Blunt Force,-76.631845,39.262185,Black,Male,44,2010-11-03,2200 Kloman St
Shooting,-76.5982618,39.3183931,Black,Male,53,2010-11-02,2500 Robb St
Shooting,-76.6305442,39.3036101,White,Male,23,2010-11-01,500 Mosher St
Shooting,-76.661723,39.313463,Black,Female,20,2010-10-31,2300 Braddish Ave
Shooting,-76.677949,39.323152,Black,Male,43,2010-10-29,3600 Fairview Ave
Blunt Force,-76.6427822,39.2832609,White,Male,46,2010-10-28,400 S. Vincent St.
Shooting,-76.685323,39.328851,Black,Male,18,2010-10-26,3500 Carsdale Ave
Shooting,-76.647464,39.3079899,Black,Male,63,2010-10-26,1700 McKean Ave
Shooting,-76.6848014,39.3314026,Black,Male,16,2010-10-26,4000 Barrington Rd
Stabbing,-76.590034,39.3078907,Black,Male,48,2010-10-25,2000 E Oliver St
Shooting,-76.58293,39.305076,Black,Male,19,2010-10-25,1200 N Milton Ave
Shooting,-76.5876823,39.2987261,Black,Male,20,2010-10-23,2100 E. Monument St.
Shooting,-76.650299,39.289548,Black,Male,25,2010-10-23,2100 W. Fayette St
Blunt Force,-76.5769531,39.2821907,Black,Male,37,2010-10-16,2800 Hudson St.
Asphyxiation,-76.708865,39.365356,Black,Female,1,2010-10-13,3800 Glengyle Ave
Shooting,-76.650115,39.297827,Black,Male,56,2010-10-13,800 N. Brice St
Shooting,-76.6612493,39.3350643,Black,Male,42,2010-10-11,2600 Shirley Ave
Shooting,-76.657306,39.306378,Black,Male,33,2010-10-10,1600 Warwick Ave
Shooting,-76.667581,39.3073539,Black,Male,46,2010-10-09,3000 Presbury St
Shooting,-76.615036,39.3308882,Black,Male,19,2010-10-09,3500 N Calvert St
Shooting,-76.556821,39.323364,Black,Male,22,2010-10-09,4700 Shamrock Ave
Shooting,-76.6706998,39.336055,Black,Male,51,2010-10-09,3100 Grantley Ave
Stabbing,-76.5731623,39.314393,Black,Male,78,2010-10-08,2600 Edison Highway
Shooting,-76.633442,39.262747,Black,Male,22,2010-10-06,2300 Sidney Ave
Shooting,-76.628785,39.2470044,Black,Female,24,2010-10-05,2700 Claflin Ct
Shooting,-76.6301419,39.2911294,Black,Male,34,2010-09-30,800 W. Lexington St
Shooting,-76.551456,39.319248,Black,Male,28,2010-09-29,5500 Bowleys Lane
Stabbing,-76.6476069,39.310238,Black,Female,36,2010-09-28,1900 mckean ave
Shooting,-76.683372,39.323146,Black,Male,38,2010-09-25,3100 Chelsea Terrace
Shooting,-76.595232,39.307567,Black,Male,31,2010-09-23,1500 N Broadway
Shooting,-76.5747632,39.3207391,Black,Male,20,2010-09-22,3200 Belair Rd
Shooting,-76.599808,39.31554,Black,Male,25,2010-09-19,1200 Bonaparte Ave
Shooting,-76.6770187,39.3204202,Black,Male,28,2010-09-19,2900 Edgewood St
Blunt Force,-76.6419699,39.305813,Black,Female,66,2010-09-17,1500 N. Stricker St
Shooting,-76.5923121,39.2972844,Black,Female,84,2010-09-16,600 N. Wolfe St
Shooting,-76.536126,39.272951,Black,Male,30,2010-09-13,1700 kane st
Shooting,-76.6591965,39.3062237,Black,Male,33,2010-09-09,2600 Baker St
Blunt Force,-76.662218,39.337836,Black,Male,48,2010-09-09,2630 Quantico Ave
Shooting,-76.678781,39.296593,White,Male,35,2010-09-07,800 Allendale St
Shooting,-76.6497219,39.3065694,Black,Male,20,2010-09-03,2000 Baker St
Shooting,-76.658787,39.279966,Black,Female,30,2010-09-02,500 East Lynn Ave
Shooting,-76.566597,39.3294659,Black,Male,31,2010-08-31,4100 Harris Ave
Other,-76.6130978,39.2847284,Unknown,Male,22,2010-08-31,330 S. Calvert St
Shooting,-76.6450917,39.3143516,Black,Male,29,2010-08-30,2700 Parkwood Ave
Blunt Force,-76.651576,39.3174805,Black,Male,44,2010-08-30,2600 Reisterstown Road
Stabbing,-76.6406,39.250383,Black,Male,23,2010-08-28,3300 Annapolis Rd
Blunt Force,-76.6072617,39.3013765,Black,Male,57,2010-08-24,700 E. Eager St
Blunt Force,-76.672103,39.349932,Black,Male,29,2010-08-22,5100 Queensberry Rd
Shooting,-76.576528,39.293783,Hispanic,Male,43,2010-08-21,118 N. Linwood Ave
Blunt Force,-76.578031,39.294954,Hispanic,Male,51,2010-08-21,200 N. Kenwood Ave
Shooting,-76.6273673,39.2946533,Black,Male,39,2010-08-16,700 W. Franklin St
Shooting,-76.61015,39.302824,Black,Male,20,2010-08-15,400 E Chase St
Shooting,-76.603723,39.313214,Black,Male,19,2010-08-14,2000 Robb St
Shooting,-76.605455,39.23951,Black,Male,27,2010-08-13,3500 Horton Ave
Shooting,-76.5722336,39.3192416,Black,Male,35,2010-08-12,3100 Edison Highway
Shooting,-76.682818,39.3279179,Black,Male,58,2010-08-12,3400 Garrison Blvd
Shooting,-76.595276,39.3086259,Black,Male,30,2010-08-11,1600 N. Broadway
Shooting,-76.641621,39.297965,Black,Male,39,2010-08-11,1500 W. Lanvale St
Shooting,-76.5963007,39.3148858,Black,Male,25,2010-08-08,2200 Germania Ave
Blunt Force,-76.646863,39.284467,Asian,Male,30,2010-08-07,1900 McHenry St
Stabbing,-76.6280759,39.3118152,Black,Male,24,2010-08-07,700 Lennox St
Shooting,-76.658509,39.2881974,Black,Male,45,2010-08-07,10 Shipley St
Shooting,-76.5769059,39.322794,Black,Male,20,2010-08-06,2800 Clifton Park Terrace
Shooting,-76.661273,39.338125,Black,Female,20,2010-08-01,2600 Quantico Ave
Shooting,-76.602279,39.312049,Black,Male,70,2010-07-30,1200 E North Ave
Shooting,-76.67946,39.347707,Black,Male,36,2010-07-30,5200 Florence Ave
Shooting,-76.6134299,39.310026,Black,Male,21,2010-07-29,200 E. Fafayette Ave
Blunt Force,-76.663165,39.337439,Black,Male,38,2010-07-29,4200 Pimlico Road
Shooting,-76.7001703,39.2775788,Black,Male,24,2010-07-27,5100 Williston St
Stabbing,-76.565268,39.348279,Black,Male,19,2010-07-27,5100 Harford Rd
Stabbing,-76.6155228,39.3194341,White,Male,23,2010-07-25,2600 St Paul St
Shooting,-76.6009893,39.3072808,Black,Male,30,2010-07-25,1500 Lanhorne Ct
Stabbing,-76.6121988,39.3100045,Black,Male,24,2010-07-24,300 E. Lafayette Ave
Shooting,-76.579593,39.296934,Hispanic,Male,27,2010-07-24,500 N. Lakewood Ave
Shooting,-76.5671287,39.3719092,Black,Male,30,2010-07-23,2300 Perring Manor Rd
Shooting,-76.598972,39.2282734,Black,Male,26,2010-07-22,4200 10th St
Stabbing,-76.6340175,39.292512,Black,Male,42,2010-07-20,300 N. Schroeder St
Shooting,-76.661255,39.331953,Black,Male,27,2010-07-17,3800 Park Heights Ave
Blunt Force,-76.6311042,39.3286183,White,Male,73,2010-07-13,3400 Elm Ave
Shooting,-76.6187211,39.3142564,Black,Female,35,2010-07-12,100 W. 22nd St
Shooting,-76.680807,39.346569,Black,Male,26,2010-07-07,5200 Cuthbert Ave
Shooting,-76.6023089,39.3061389,Black,Male,19,2010-07-06,1500 E. Hoffman St
Shooting,-76.597978,39.319937,Black,Male,17,2010-07-05,2600 Garrett Ave
Shooting,-76.585598,39.302485,Black,Male,30,2010-07-04,1000 N. Patterson Park Ave
Shooting,-76.58385,39.309291,Black,Male,24,2010-07-03,1600 N. Port St
Shooting,-76.639709,39.311543,Black,Male,24,2010-07-03,2400 Druid Hill Ave
Shooting,-76.612071,39.289889,Black,Male,26,2010-07-02,200 E. Baltimore ST
Shooting,-76.6295857,39.3106963,Black,Male,16,2010-07-01,700 W. North Ave
Shooting,-76.596489,39.323512,Black,Male,28,2010-06-29,1500 Carswell St
Shooting,-76.592088,39.313246,Black,Male,23,2010-06-28,2000 N. Wolfe St
Blunt Force,-76.683009,39.344375,Black,Female,47,2010-06-28,5200 St. Charles Ave
Shooting,-76.6590636,39.2888499,Black,Male,28,2010-06-27,2600 W. Fayette ST
Shooting,-76.570522,39.293149,Black,Male,23,2010-06-26,3300 Noble St
Shooting,-76.670073,39.346284,Black,Male,29,2010-06-24,3100 Woodland Ave
Shooting,-76.631473,39.3044023,Black,Male,34,2010-06-23,500 Mc Mechen St
Shooting,-76.572301,39.296275,Black,Male,30,2010-06-21,400 N. East Ave
Shooting,-76.6582819,39.3014946,Black,Male,55,2010-06-20,2500 Winchester St
Shooting,-76.59069,39.312471,Black,Male,19,2010-06-19,1900 Washington St
Shooting,-76.645959,39.296555,Black,Male,33,2010-06-15,700 N. Fulton Ave
Shooting,-76.6274055,39.2450135,Black,Male,25,2010-06-14,2900 Spelman Rd
Shooting,-76.581512,39.294766,Black,Male,25,2010-06-13,200 N. Rose St
Shooting,-76.6018083,39.2936778,Black,Male,22,2010-06-11,1100 New Hope Circle
Asphyxiation,-76.685573,39.299831,Black,Female,83,2010-06-07,1200 N Augusta Ave
Shooting,-76.6166192,39.3009601,Black,Male,32,2010-06-05,1 W. Eager St
Stabbing,-76.5416553,39.3157569,White,Male,44,2010-06-04,6059 Moravia Park Dr
Blunt Force,-76.590569,39.270615,White,Male,31,2010-06-04,1300 Richardson St
Shooting,-76.6457526,39.306702,Black,Male,19,2010-06-01,1601 Bruce Ct
Shooting,-76.6455194,39.2938973,Black,Male,27,2010-06-01,500 N. Fulton Ave
Stabbing,-76.548618,39.317329,Black,Male,43,2010-05-31,4800 Truesdale Ave
Shooting,-76.596521,39.336276,Black,Male,59,2010-05-31,3900 Loch Raven Blvd
Shooting,-76.6499677,39.2859478,Black,Male,30,2010-05-30,68 S. Pulaski St
Shooting,-76.6499677,39.2859478,Black,Male,32,2010-05-30,68 S. Pulaski St
Shooting,-76.6497882,39.2830232,Black,Male,28,2010-05-30,2100 Ramsay St
Shooting,-76.581573,39.295756,Black,Male,18,2010-05-29,400 N. Rose St
Shooting,-76.589004,39.228112,Black,Male,30,2010-05-29,4100 Pennington Ave
Shooting,-76.580751,39.299089,Black,Male,22,2010-05-29,2600 E Monument St
Shooting,-76.579101,39.301423,Black,Male,19,2010-05-24,900 N. Belnord Ave
Shooting,-76.667712,39.309332,Black,Male,19,2010-05-20,3000 W. North Ave
Shooting,-76.691858,39.342034,Black,Male,34,2010-05-20,4300 Elderon Ave
Shooting,-76.5982366,39.2890552,Black,Male,34,2010-05-17,200 S. Spring Ct
Stabbing,-76.590346,39.321939,Black,Male,32,2010-05-15,2824 Harford Rd
Shooting,-76.677399,39.34881,Black,Male,30,2010-05-14,3313 Paton Ave
Shooting,-76.6710882,39.3377003,Black,Male,49,2010-05-12,4300 Daytona Ave
Shooting,-76.6025348,39.3379693,Black,Male,34,2010-05-08,900 North Hill Rd
Shooting,-76.6025348,39.3379693,Black,Male,30,2010-05-08,900 North Hill Rd
Shooting,-76.586784,39.2968819,White,Male,42,2010-05-08,500 N. Collington
Asphyxiation,-76.5943846,39.3266235,White,Female,29,2010-05-07,3200 The Alameda
Blunt Force,-76.6104692,39.2366742,White,Male,36,2010-05-05,3733 s. hanover st
Blunt Force,-76.6339274,39.2910059,White,Male,49,2010-05-05,1000 W. Lexington St
Shooting,-76.650136,39.2858639,Black,Male,29,2010-05-04,2100 Frederick AVe
Shooting,-76.64172,39.289895,Black,Male,16,2010-05-03,1500 W. Fayette St
Shooting,-76.6301419,39.2911294,Black,Male,16,2010-04-29,800 W Lexington St
Shooting,-76.6091749,39.351,Black,Male,30,2010-04-27,500 Chateau Ave
Shooting,-76.636587,39.279215,Black,Male,31,2010-04-26,1200 Bayard St
Shooting,-76.697173,39.332219,Black,Male,18,2010-04-25,4800 Liberty Heights Ave
Shooting,-76.6467119,39.308947,Black,Male,33,2010-04-20,1800 N. Fulton Ave
Shooting,-76.582884,39.304013,Black,Male,30,2010-04-18,1100 N. Milton Ave
Shooting,-76.684427,39.3490091,Black,Male,40,2010-04-18,5400 Narcissus Ave
Blunt Force,-76.589944,39.306779,Black,Female,2,2010-04-17,2000 E. Hoffman St
Shooting,-76.602279,39.312049,Black,Male,23,2010-04-16,1200 E. North Ave
Shooting,-76.7006067,39.3549373,Black,Male,24,2010-04-16,4100 Kenshaw Ave
Shooting,-76.603363,39.311466,Black,Male,21,2010-04-11,1101 E. North Ave
Shooting,-76.6799635,39.3492563,Black,Male,36,2010-04-11,5300 Denmore
Shooting,-76.608928,39.328131,Black,Male,21,2010-04-10,501 E. 33rd St
Shooting,-76.609708,39.323602,Black,Male,72,2010-04-08,2900 Greenmount Ave
Shooting,-76.609227,39.354301,Black,Male,40,2010-04-07,500 Glenwood Ave
Shooting,-76.5714082,39.367069,Black,Male,25,2010-04-06,2200 Fleetwood Ave
Shooting,-76.7013873,39.3095585,Black,Male,27,2010-03-29,1900 Eagle Dr
Shooting,-76.654112,39.2879984,Black,Male,29,2010-03-28,10 N. Calverton Rd
Shooting,-76.581655,39.307039,Black,Male,16,2010-03-27,1400 N. Luzerne Ave
Shooting,-76.5712869,39.3585316,Black,Male,22,2010-03-23,2200 Roselawn
Shooting,-76.580932,39.30657,Black,Male,20,2010-03-22,2600 Grogan Ave
Shooting,-76.6579129,39.326057,Black,Male,27,2010-03-21,3400 Park Heights Ave
Shooting,-76.6086739,39.311933,Black,Male,50,2010-03-21,1900 Boone St
Shooting,-76.5747632,39.3207391,Black,Male,25,2010-03-18,3200 Belair Rd
Shooting,-76.5398285,39.3141528,Black,Male,25,2010-03-15,6510 frankford ave
Shooting,-76.6197365,39.3177678,Black,Male,37,2010-03-15,200 W. 25th St
Blunt Force,-76.6304128,39.3166895,Black,Male,1,2010-03-14,700 Druid Park Lake Drive
Shooting,-76.614359,39.319465,Black,Male,22,2010-03-12,2600 N Calvert St
Shooting,-76.650299,39.289548,Black,Male,20,2010-03-05,2100 w. fayette st
Shooting,-76.565429,39.328707,Black,Male,23,2010-03-04,4300 Belair Rd
Blunt Force,-76.6351298,39.2859282,Black,Male,44,2010-03-03,201 S. Arlington ST
Shooting,-76.598911,39.306774,Black,Male,29,2010-03-03,1400 N Caroline St
Shooting,-76.646422,39.30539,Black,Male,23,2010-02-26,1500 N. Fulton Ave
Stabbing,-76.6636929,39.3036074,Black,Male,35,2010-02-23,1400 N. Dukeland St
Shooting,-76.565905,39.319507,Black,Male,28,2010-02-21,3500 Cliftmont Ave
Shooting,-76.614102,39.289201,Black,Male,38,2010-02-20,10 S. Light St
Shooting,-76.655238,39.307712,Black,Male,35,2010-02-17,1700 Ruxton Ave
Stabbing,-76.579738,39.2992739,Black,Male,27,2010-02-17,700 n. lakewood ave
Shooting,-76.6713918,39.3452034,Black,Male,21,2010-02-16,3200 Woodland Ave
Shooting,-76.65393,39.301829,Black,Male,38,2010-02-07,1200 N. Bentalou St
Stabbing,-76.6825439,39.28369,Black,Male,24,2010-02-06,4000 Massachusetts Ave
Shooting,-76.6577636,39.3390451,Black,Male,30,2010-02-05,2400 Loyola Southway
Shooting,-76.650708,39.295252,Black,Male,34,2010-02-03,2100 Edmondson Ave
Shooting,-76.648649,39.313216,Black,Male,27,2010-02-01,2200 N. Monroe St
Stabbing,-76.631031,39.2899794,Black,Male,31,2010-01-29,851 W. Fayette St
Shooting,-76.602856,39.312206,Black,Male,35,2010-01-25,1900 Aisquith St
Stabbing,-76.5676803,39.3708439,Black,Male,20,2010-01-23,6900 McClean Blvd
Shooting,-76.598617,39.309774,Black,Male,21,2010-01-19,1700 N. Caroline St
Stabbing,-76.621472,39.295098,Black,Male,27,2010-01-18,400 W. Franklin St
Shooting,-76.6295346,39.2979405,Black,Male,19,2010-01-18,600 W Hoffman St
Shooting,-76.654267,39.309806,Black,Male,48,2010-01-16,2300 W. North Ave
Shooting,-76.56697,39.330646,Black,Male,20,2010-01-10,3900 Eierman Ave
Shooting,-76.580521,39.301475,Black,Male,38,2010-01-10,900 N. Glover St.
Blunt Force,-76.583023,39.306144,Black,Male,41,2010-01-07,1300 N. Milton Ave
Shooting,-76.660037,39.288817,Black,Male,21,2010-01-06,100 N. Franklintown Rd
Shooting,-76.655603,39.320578,Black,Male,33,2010-01-03,2312 Ocala Ave
Shooting,-76.6658,39.35,Black,Male,31,2011-12-28,2800 W Garrison Ave
Shooting,-76.6303656,39.2497292,Black,Male,30,2011-12-24,2700 Giles Rd
Blunt Force,-76.6050081,39.3298976,Black,Female,67,2011-12-22,800 E 34 St
Shooting,-76.6561347,39.2848378,Black,Male,40,2011-12-21,2500 W Pratt St
Shooting,-76.668988100000007,39.3025989,Black,Male,29,2011-12-19,1500 Rosedale St
Shooting,-76.6516719,39.2904384,Black,Male,27,2011-12-18,200 N Smallwood St
Shooting,-76.5640965,39.3292509,Black,Male,32,2011-12-17,4200 Nicholas Ave
Shooting,-76.678629,39.312457,Black,Male,23,2011-12-16,2200 Elsinore Ave
Stabbing,-76.6577865,39.3313549,Black,Male,58,2011-12-10,2500 Violet Ave
Shooting,-76.614864,39.323517,Black,Male,22,2011-12-08,2900 N. Calvert St
Stabbing,-76.57214,39.292724,Hispanic,Male,27,2011-12-06,1 N. East Ave
Shooting,-76.6164079,39.310906,Black,Male,35,2011-12-06,1 E. North Ave
Shooting,-76.652699,39.281269,Black,Male,29,2011-11-29,500 S Bentalou St
Shooting,-76.632295,39.294626,Black,Male,25,2011-11-22,900 W Franklin St
Shooting,-76.6374869,39.2968339,Black,Male,25,2011-11-15,700 N Carrollton Ave
Shooting,-76.656086,39.307679,Black,Male,32,2011-11-14,1700 Moreland St
Shooting,-76.599329,39.315444,Black,Male,18,2011-11-12,2200 Aiken St
Shooting,-76.6278198,39.2979889,Black,Male,20,2011-11-12,1000 Pennsylvania Ave
Shooting,-76.5755812,39.3268874,Black,Female,26,2011-11-11,2600 kentucky ave
Shooting,-76.593043,39.34267,Hispanic,Male,25,2011-11-09,4300 Loch Raven Boulevard
Asphyxiation,-76.6747504,39.3483869,Black,Female,67,2011-11-08,3200 Spaulding Ave
Shooting,-76.5555399,39.336263,Black,Male,21,2011-11-05,4100 Parkwood Ave
Shooting,-76.6096457,39.3235553,Black,Male,52,2011-10-31,2900 Greenmount Ave
Shooting,-76.6100447,39.3544192,White,Male,38,2011-10-31,5300 York Road
Stabbing,-76.6293522,39.295803,Black,Male,53,2011-10-28,600 George St
Shooting,-76.661288,39.3031999,Black,Male,18,2011-10-27,1300 Braddish Ave
Blunt Force,-76.60347,39.3400139,Black,Female,43,2011-10-25,900 E. 41st St
Shooting,-76.633269,39.310996,Black,Male,38,2011-10-24,2000 Linden Ave
Shooting,-76.6456133,39.3139087,Black,Male,18,2011-10-21,2800 S. Woodbrook AVe
Shooting,-76.600268,39.3094166,Black,Male,23,2011-10-17,1700 Harford Ave
Shooting,-76.599329,39.315444,Black,Male,20,2011-10-16,2200 Aiken St
Shooting,-76.5947489,39.324748,Black,Male,23,2011-10-14,1500 E. 29th St
Blunt Force,-76.6630204,39.2927646,Black,Male,52,2011-10-13,2800 W. Mulberry St
Shooting,-76.584341,39.311256,Black,Male,24,2011-10-11,2400 E. Lafayette St
Shooting,-76.6315143,39.3128493,Black,Male,36,2011-10-11,2200 Callow Ave
Shooting,-76.639735,39.28514,Black,Male,17,2011-10-10,1400 Kuper Place
Shooting,-76.5785696,39.2954351,Black,Male,20,2011-10-10,300 N. Belnord Ave
Shooting,-76.6014658,39.2291941,Black,Male,20,2011-10-03,900 Herndon Ct
Shooting,-76.6314726,39.3044019,Black,Male,32,2011-10-03,500 McMechen St
Shooting,-76.589168,39.32662,Black,Male,32,2011-09-28,1900 E. 31st St
Shooting,-76.5981683,39.293048,Black,Male,26,2011-09-28,1400 E Fayette St
Shooting,-76.675594,39.311603,Black,Male,45,2011-09-28,2200 Garrison Blvd
Shooting,-76.693183,39.351667,Black,Male,38,2011-09-27,4000 Primrose Ave
Shooting,-76.681152,39.339692,Black,Male,30,2011-09-25,3900 Dolfield Ave
Shooting,-76.681152,39.339692,Black,Male,28,2011-09-25,3900 Dolfield Ave
Shooting,-76.6050081,39.3298976,Black,Male,30,2011-09-21,800 E 34th St
Shooting,-76.572301,39.296275,Black,Male,20,2011-09-20,400 N East Ave
Shooting,-76.6735279,39.3341469,Black,Male,29,2011-09-20,3500 Dolfield Ave
Stabbing,-76.6322387,39.2899964,Black,Male,22,2011-09-19,100 N Poppleton Ave
Shooting,-76.6011286,39.2351184,Black,Male,25,2011-09-17,700 E Pontiac Ave
Asphyxiation,-76.6252493,39.2412331,Hispanic,Male,42,2011-09-16,700 W Patapsco Ave
Shooting,-76.646968,39.286328,Black,Male,16,2011-09-14,1900 W. Lombard St
Shooting,-76.576868,39.3160066,Black,Male,24,2011-09-13,3300 Elmora Ave
Shooting,-76.6076778,39.3405534,Black,Male,21,2011-09-08,4200 Old York Road
Stabbing,-76.661872,39.30063,Black,Male,1,2011-09-07,2700 Riggs Ave
Shooting,-76.5877493,39.2965285,Black,Male,31,2011-09-04,500 N Chester St
Blunt Force,-76.6170663,39.2786463,Black,Female,51,2011-09-01,900 Leadenhall St
Blunt Force,-76.591378,39.357245,Black,Male,1,2011-09-01,5600 Woodmont Ave
Shooting,-76.627483,39.2459553,Black,Male,23,2011-08-28,2800 Round Rd
Blunt Force,-76.5940902,39.3209825,Black,Female,4,2011-08-27,1700 Gorsuch Ave
Shooting,-76.605286,39.304347,Black,Male,26,2011-08-25,1200 Valley St
Shooting,-76.679434,39.325724,Black,Male,24,2011-08-23,3700 W. Forest Park Ave
Shooting,-76.552929,39.3223141,Asian,Female,20,2011-08-23,5200 Bowleys Lane
Shooting,-76.582884,39.304013,Black,Male,25,2011-08-22,1100 N. Milton Ave
Shooting,-76.6795178,39.2900795,Black,Male,25,2011-08-22,200 Mt Holly St
Stabbing,-76.5577272,39.3568379,Black,Male,35,2011-08-22,6000 Harford Rd
Shooting,-76.6742271,39.311044,Black,Male,33,2011-08-14,3400 Clifton Ave
Shooting,-76.663261,39.342655,Black,Male,23,2011-08-14,2900 Edgecombe Circle S
Stabbing,-76.5524329,39.32669,Black,Female,91,2011-08-03,4700 Moravia Road
Shooting,-76.5960769,39.314929,Black,Male,24,2011-08-01,1600 Darley Ave
Shooting,-76.710532,39.297631,White,Male,15,2011-08-01,1100 Wedgewood Rd
Shooting,-76.710532,39.297631,Black,Male,15,2011-07-31,1100 Wedgewood Rd
Shooting,-76.551221,39.318798,Black,Male,31,2011-07-30,4800 Bowland Ave
Shooting,-76.5938324,39.304368,Black,Male,29,2011-07-29,1200 N. Gay St
Shooting,-76.563515,39.319482,Black,Male,47,2011-07-27,3600 Chesterfield Ave
Shooting,-76.579101,39.301423,Black,Male,21,2011-07-26,900 N. Belnord Ave
Shooting,-76.562315,39.328046,Black,Male,27,2011-07-26,4300 Nicholas Ave
Shooting,-76.562315,39.328046,Black,Male,58,2011-07-26,4300 Nicholas Ave
Shooting,-76.562315,39.328046,Black,Female,37,2011-07-26,4300 Nicholas Ave
Other,-76.6084686,39.3167201,Black,Male,25,2011-07-25,600 Cokesbury Ave
Stabbing,-76.6429087,39.2977372,Black,Male,22,2011-07-20,800 N Gilmor St
Shooting,-76.654365,39.309981,Unknown,Male,25,2011-07-19,1900 Bentalou St
Shooting,-76.633929,39.281169,Black,Male,21,2011-07-17,1200 Ward St
Shooting,-76.5962668,39.2993847,Black,Male,30,2011-07-16,800 N Bond St
Shooting,-76.659267,39.2882395,Black,Male,29,2011-07-15,1 N Franklintown Rd
Shooting,-76.651506,39.3087779,Black,Male,30,2011-07-14,1800 N. Pulaski St
Shooting,-76.6076159,39.313992,Black,Male,24,2011-07-14,2100 Homewood Ave
Blunt Force,-76.5785462,39.2950596,Black,Female,43,2011-07-10,200 N Belnord Ave
Shooting,-76.5971919,39.2989368,Black,Male,22,2011-07-10,1500 Lester Morton Ct
Stabbing,-76.5940902,39.3209825,Black,Male,46,2011-07-10,1700 Gorsuch Ave
Stabbing,-76.6152278,39.2906633,Black,Male,25,2011-07-09,100 N. Charles St
Shooting,-76.678935,39.295361,Black,Male,29,2011-07-05,3700 Harlem Ave
Stabbing,-76.6039332,39.2851405,White,Male,26,2011-07-04,700 Eastern Ave
Shooting,-76.636415,39.281183,Black,Male,21,2011-07-02,1100 S. Carey St
Shooting,-76.5937115,39.3496007,Black,Male,20,2011-07-01,1400 Stonewood Rd
Shooting,-76.6503793,39.2685062,Black,Male,16,2011-06-29,1900 Breitwert Ave
Shooting,-76.6305442,39.3036101,Black,Male,24,2011-06-28,500 Mosher St
Shooting,-76.568152,39.314997,Asian,Male,55,2011-06-28,3900 Erdman Ave
Stabbing,-76.5711436,39.291881,Black,Female,22,2011-06-27,3200 Leverton Ave
Shooting,-76.5696731,39.3566519,Black,Male,23,2011-06-22,5500 Grindon Ave
Shooting,-76.663261,39.342655,Black,Male,52,2011-06-20,2900 Edgecombe Cir S
Shooting,-76.5757199,39.3154566,Black,Male,51,2011-06-20,3400 Ravenwood Ave
Shooting,-76.661449,39.2956111,Black,Male,39,2011-06-17,700 Ashburton St
Shooting,-76.67432,39.292877,Black,Male,55,2011-06-16,500 Denison St
Shooting,-76.6075437,39.3381109,Black,Male,26,2011-06-14,600 Dumbarton Ave
Shooting,-76.609774,39.316378,Black,Male,40,2011-06-14,2400 Greenmount Ave
Shooting,-76.666254,39.308344,Black,Male,23,2011-06-12,2900 Westwood Ave
Shooting,-76.661632,39.338808,Black,Male,29,2011-06-12,2600 Park Heights Terrace
Shooting,-76.6411509,39.288648,Black,Male,25,2011-06-11,1500 W. Baltimore St
Shooting,-76.672358,39.349928,Black,Male,26,2011-06-10,3000 Spaulding Ave
Shooting,-76.5714082,39.367069,Black,Male,25,2011-06-03,2200 Fleetwood Ave
Stabbing,-76.537003,39.334669,Black,Male,25,2011-06-01,5800 Moores Run Ct
Shooting,-76.6072617,39.3013765,Black,Male,35,2011-05-31,700 E. Eager St
Shooting,-76.569259,39.292696,Black,Male,34,2011-05-31,3400 E. Baltimore St
Shooting,-76.682942,39.313455,White,Female,40,2011-05-29,3900 Windsor Mill Road
Shooting,-76.693157,39.330947,Black,Male,28,2011-05-28,4500 Liberty Heights Ave
Shooting,-76.5936454,39.3153265,Black,Male,12,2011-05-26,1700 Cliftview Ave
Stabbing,-76.6329303,39.2809595,Black,Male,57,2011-05-26,1200 W. Ostend St
Shooting,-76.595711,39.3022581,Black,Male,27,2011-05-26,1600 Ward Ct
Shooting,-76.648177,39.305509,Black,Male,33,2011-05-25,1500 N Monroe St
Stabbing,-76.6685576,39.2943637,Black,Male,17,2011-05-22,3100 Edmondson Ave
Stabbing,-76.646572,39.306759,Black,Male,50,2011-05-21,1600 N Fulton Ave
Shooting,-76.598713,39.230032,Black,Male,19,2011-05-19,4100 10th St
Shooting,-76.6747508,39.3483873,Black,Male,29,2011-05-19,3200 Spaulding Ave
Shooting,-76.597354,39.345067,Black,Male,22,2011-05-14,4500 Marble Hall Rd
Shooting,-76.621426,39.290573,Black,Male,31,2011-05-11,100 N Eutaw St
Stabbing,-76.59841,39.347429,Black,Male,27,2011-05-03,1200 Linworth Ave
Stabbing,-76.5938302,39.2903983,Hispanic,Male,22,2011-04-29,1700 E. Lombard St
Shooting,-76.587767,39.312813,Black,Male,23,2011-04-28,1900 N. Collington Ave
Shooting,-76.587767,39.312813,Black,Male,26,2011-04-28,1900 N. Collington Ave
Asphyxiation,-76.646702,39.288627,Black,Male,49,2011-04-27,1 N. Monroe St
Shooting,-76.604277,39.236506,Black,Male,23,2011-04-26,3600 5th St
Shooting,-76.654347,39.308676,Black,Male,43,2011-04-25,1800 N. Bentalou St
Shooting,-76.6863245,39.2992264,Black,Male,29,2011-04-24,4200 Rokeby Rd
Shooting,-76.6863245,39.2992264,Black,Male,25,2011-04-24,4200 Rokeby Rd
Shooting,-76.693828,39.28446,Black,Male,25,2011-04-24,4700 Sayer Ave
Stabbing,-76.638749,39.294342,Black,Male,22,2011-04-23,500 N Carey St
Shooting,-76.6400599,39.2968205,Black,Male,20,2011-04-23,700 N Calhoun St
Shooting,-76.594551,39.320506,Black,Male,46,2011-04-22,1700 Homestead St
Shooting,-76.618129,39.2906959,Black,Male,50,2011-04-22,200 W. Fayette St
Shooting,-76.6150385,39.2840544,Black,Male,47,2011-04-21,1 W Conway St
Shooting,-76.607687,39.317345,Black,Male,19,2011-04-20,600 Barlett Ave
Asphyxiation,-76.7060147,39.3533437,Black,Female,16,2011-04-20,6500 Eberle Dr
Shooting,-76.6340991,39.2943882,Black,Male,31,2011-04-19,500 N Schroeder St
Shooting,-76.5742268,39.2946678,Hispanic,Male,26,2011-04-16,500 N. Decker Ave
Shooting,-76.690868,39.318136,Black,Female,24,2011-04-13,4500 Westchester Rd
Shooting,-76.593577,39.308174,Black,Male,19,2011-04-12,1700 Crystal Ave
Stabbing,-76.610896,39.236581,Hispanic,Male,43,2011-04-11,3800 S. Hanover St
Shooting,-76.618311,39.293126,Black,Male,25,2011-04-09,200 W. Saratoga St
Stabbing,-76.549378,39.31993,Black,Male,31,2011-04-09,4900 Bowland Ave
Shooting,-76.6269867,39.3118409,Black,Female,32,2011-04-06,600 Lennox st
Shooting,-76.675045,39.321181,Black,Male,24,2011-04-05,3400 Powhatan Ave
Shooting,-76.6630204,39.2927646,Black,Male,20,2011-04-05,2800 Mulberry St
Stabbing,-76.6111746,39.2924758,Black,Male,24,2011-04-02,300 Guilford St
Shooting,-76.6389817,39.3025032,Black,Male,25,2011-03-31,1300 Winchester St
Shooting,-76.54262,39.316241,Black,Male,31,2011-03-31,6000 Moravia Park Dr
Shooting,-76.627008,39.2835279,Black,Male,31,2011-03-30,700 Washington Blvd
Stabbing,-76.6215486,39.3188969,Black,Female,18,2011-03-29,2600 Huntingdon Ave
Shooting,-76.5407835,39.3239012,Black,Male,31,2011-03-29,5400 Sinclair Lane
Shooting,-76.634345,39.295795,Black,Male,27,2011-03-29,1000 Edmondson Ave
Shooting,-76.578151,39.317183,Black,Male,17,2011-03-27,3200 Elmley Ave
Stabbing,-76.611317,39.313557,Black,Male,46,2011-03-25,2100 Barclay St
Stabbing,-76.609323,39.3117189,Black,Male,48,2011-03-23,500 E. North Ave
Stabbing,-76.6917622,39.2935464,Black,Male,24,2011-03-20,4500 Edmondson Ave
Shooting,-76.6272879,39.3075459,Black,Male,21,2011-03-19,300 McMechen St
Blunt Force,-76.6329303,39.2809595,Black,Male,44,2011-03-18,1200 W. Ostend St
Shooting,-76.64566,39.3124449,Black,Male,29,2011-03-17,2700 Pennsylvania Ave
Shooting,-76.602304,39.325791,Black,Female,19,2011-03-12,1100 Gorsuch Ave
Stabbing,-76.6804699,39.3436923,Black,Male,17,2011-03-06,5000 Nelson Ave
Shooting,-76.672783,39.288762,Black,Male,23,2011-03-05,200 N. Hilton St
Other,-76.645344,39.259302,White,Male,57,2011-03-05,2700 Hollins Ferry Road
Stabbing,-76.709874,39.298149,Black,Male,22,2011-03-05,1100 Cooks Lane
Shooting,-76.6094599,39.3114589,Black,Male,47,2011-03-03,1901 Greenmount Ave
Stabbing,-76.664322,39.311646,Black,Male,62,2011-02-27,2800 Clifton Ave
Shooting,-76.595553,39.315375,Black,Male,23,2011-02-20,1600 Cliftview Ave
Asphyxiation,-76.671714,39.343688,Black,Male,25,2011-02-19,3300 Virginia Ave
Stabbing,-76.6095073,39.3114971,Black,Male,45,2011-02-17,1900 Greenmount Ave
Shooting,-76.593389,39.326329,Black,Male,22,2011-02-16,1600 E 31st St
Stabbing,-76.630416,39.281453,Black,Male,53,2011-02-15,1100 W. Cross St
Shooting,-76.6627812,39.3346498,Black,Male,19,2011-02-11,4000 Park Heights
Shooting,-76.543878,39.359276,Black,Male,21,2011-02-08,6600 Alta Ave
Shooting,-76.593674,39.3215418,Black,Male,19,2011-02-07,2700 Polk St
Shooting,-76.686445,39.297808,Black,Male,36,2011-02-02,900 N. Woodington Rd
Shooting,-76.548449,39.318447,Black,Male,51,2011-01-30,5700 Eastbury Ave
Shooting,-76.6292718,39.2860161,Black,Male,30,2011-01-29,800 W Pratt St
Shooting,-76.6448828,39.2821157,Black,Male,31,2011-01-24,500 S. Fulton Ave
Shooting,-76.598414,39.298739,Black,Male,35,2011-01-23,1400 E Monument St
Shooting,-76.6193459,39.250013,Black,Male,29,2011-01-22,400 Swale Ave
Shooting,-76.6274055,39.2450135,Black,Male,21,2011-01-20,2900 Denham Circle
Shooting,-76.637398,39.295597,Black,Male,45,2011-01-10,600 N Carrollton Ave
Shooting,-76.586312,39.32537,Black,Male,26,2011-01-10,3000 Harford Rd
Shooting,-76.6501119,39.317492,Black,Male,26,2011-01-09,1700 Gwynns Falls Pkway
Shooting,-76.6493239,39.31716,Black,Male,22,2011-01-09,1701 Gwynns Falls Pkway
Shooting,-76.613394,39.328552,Black,Male,34,2011-01-09,300 E. 33rd St
Shooting,-76.5751743,39.3256969,Black,Male,34,2011-01-05,3500 Woodstock Ave
Shooting,-76.57164,39.358669,Black,Male,38,2011-01-02,5600 Plymouth Rd
Shooting,-76.579593,39.296934,Black,Male,16,2011-01-01,500 N. Lakewood Ave
Stabbing,-76.58992,39.226191,Black,Male,21,2011-01-01,1500 Hazel St
Shooting,-76.582884,39.304013,Unknown,Male,NA,2012-05-14,1100 N. Milton Ave
Shooting,-76.593715,39.327041,Black,Male,19,2012-05-13,1600 E. 32nd St
Shooting,-76.5968489,39.2874941,Black,Male,22,2012-05-13,1500 Gough St
Shooting,-76.6213897,39.2950056,Black,Male,33,2012-05-13,400 W Franklin St
Stabbing,-76.6645979,39.3373581,Black,Male,34,2012-05-13,3600 Park Heights Terrace
Blunt Force,-76.612506,39.321647,Black,Male,46,2012-05-09,300 Whitridge Ave
Shooting,-76.604125,39.31297,Black,Male,28,2012-05-08,1100 E. 20th St
Shooting,-76.6744964,39.3163326,Black,Male,28,2012-05-08,3400 Piedmont Ave
Shooting,-76.6214615,39.2958768,Black,Male,19,2012-05-08,600 N Eutaw St
Shooting,-76.670547,39.348011,Black,Male,21,2012-05-06,3000 Oakley Ave
Shooting,-76.68442,39.316639,Black,Male,18,2012-05-05,4100 Alto Rd
Asphyxiation,-76.6250103,39.3011996,Black,Female,44,2012-05-03,400 Cummings Ct
Shooting,-76.5757199,39.3154566,Black,Male,51,2012-04-28,3400 Ravenwood Ave
Stabbing,-76.621478,39.2929004,Black,Male,23,2012-04-27,400 W. Saratoga St
Shooting,-76.656799,39.296405,Black,Male,45,2012-04-25,2500 harlem ave
Shooting,-76.686855,39.3237299,Black,Male,59,2012-04-24,4100 Norfolk Ave
Blunt Force,-76.5547964,39.3445312,Asian,Female,37,2012-04-23,5400 Hillburn Ave
Shooting,-76.6658143,39.338763,Black,Male,19,2012-04-23,2700 Boarman Ave
Shooting,-76.6411803,39.3102128,Black,Male,43,2012-04-23,1500 W. North Ave
Shooting,-76.5747628,39.3207387,Black,Male,33,2012-04-18,3200 Belair Rd
Shooting,-76.599264,39.309744,Black,Male,29,2012-04-17,1700 N Spring St
Shooting,-76.695895,39.3316108,Unknown,Male,34,2012-04-16,4700 Liberty Heights Ave
Shooting,-76.6022633,39.3050817,Black,Male,27,2012-04-16,1300 Aisquith St
Shooting,-76.635323,39.306438,Black,Male,34,2012-04-14,1900 Etting St
Shooting,-76.6496685,39.2968461,Black,Male,31,2012-04-14,2000 Rayner Ave
Shooting,-76.6255374,39.301522,Black,Male,23,2012-04-13,400 Watty Court
Shooting,-76.600861,39.2319,Black,Male,36,2012-04-09,800 Jack St
Shooting,-76.6033269,39.306402,Black,Male,22,2012-04-08,1400 Holbrook St
Shooting,-76.5996289,39.320962,Black,Male,33,2012-04-08,2600 Kirk Ave
Shooting,-76.6435033,39.3080023,Black,Male,37,2012-04-07,1700 N Calhoun St
Shooting,-76.595801,39.361427,Black,Male,19,2012-04-02,1100 E Belvedere Ave
Shooting,-76.6032911,39.3406582,Black,Male,30,2012-04-02,900 Belgian Ave
Shooting,-76.6049371,39.3138796,Black,Male,29,2012-04-01,1000 E. 22nd St
Shooting,-76.6049238,39.3002843,Black,Male,59,2012-03-30,900 Valley st
Shooting,-76.572227,39.3614528,Black,Male,19,2012-03-27,6200 Pioneer Dr
Shooting,-76.550673,39.340789,Black,Male,26,2012-03-25,4100 Idaho Ave
Blunt Force,-76.667548,39.3060649,Black,Male,1,2012-03-25,3000 Baker St
Shooting,-76.629745,39.290204,Black,Male,18,2012-03-24,800 W Fayette St
Shooting,-76.609646,39.3136087,Black,Male,20,2012-03-23,500 E. 21st St
Shooting,-76.6424745,39.3108364,Black,Male,24,2012-03-21,1600 Traction St
Shooting,-76.66249,39.308235,Black,Male,23,2012-03-20,1800 Ashburton
Shooting,-76.538956,39.291258,Black,Male,37,2012-03-19,6400 E Pratt St
Shooting,-76.679188,39.347301,Black,Male,25,2012-03-16,3500 W Belvedere Ave
Shooting,-76.584986,39.3037909,Black,Male,54,2012-03-16,2300 E Chase St
Shooting,-76.583343,39.30125,Black,Male,47,2012-03-13,900 N Port St
Shooting,-76.6036877,39.3061644,Black,Male,38,2012-03-10,1000 E Hoffman St
Shooting,-76.6528639,39.3099429,Black,Male,21,2012-03-07,2200 W. North Ave
Shooting,-76.6754447,39.29188,Black,Male,19,2012-03-06,3500 W. Mulberry St
Shooting,-76.6766478,39.2919655,Black,Male,17,2012-03-05,3510 W. Mulberry St
Shooting,-76.6244864,39.3007809,Black,Male,21,2012-03-04,400 Oxford Ct
Shooting,-76.595555,39.315372000000004,Black,Female,13,2012-03-04,1600 Cliftview Ave
Shooting,-76.597349,39.345067,Black,Male,42,2012-03-04,4500 Marble Hall Rd
Shooting,-76.6944716,39.3110749,Black,Male,21,2012-02-29,4700 Windsor Mill
Blunt Force,-76.6789215,39.3263948,Black,Female,5,2012-02-28,3400 Callaway Ave
Stabbing,-76.5779737,39.295919,Black,Male,32,2012-02-26,400 N Kenwood Ave
Shooting,-76.6462792,39.3134451,Black,Male,46,2012-02-23,2200 N. Fulton Ave
Stabbing,-76.638183,39.286769,Black,Male,47,2012-02-19,1300 W Lombard St
Shooting,-76.6095613,39.3224704,Black,Male,22,2012-02-13,2800 Greenmount Ave
Shooting,-76.531248,39.327575,Black,Male,27,2012-02-12,5900 Laclede Rd
Shooting,-76.6877,39.318585,Black,Male,62,2012-02-09,2900 Haverford Rd
Shooting,-76.6037767,39.304901,Black,Male,28,2012-02-06,931 E. Preston St
Shooting,-76.5873266,39.359445,Black,Male,31,2012-02-01,5700 Nasco Place
Shooting,-76.559343,39.324669,Black,Male,26,2012-02-01,4300 Greenhill Ave
Shooting,-76.682357,39.283369,Black,Male,19,2012-01-29,200 S. Loudon Ave
Shooting,-76.6672581,39.3393789,Black,Male,24,2012-01-27,2700 Coldspring Lane
Shooting,-76.6425351,39.2884694,Black,Male,32,2012-01-20,1600 W. Baltimore St
Asphyxiation,-76.65826,39.330073,Black,Female,68,2012-01-20,3600 Cottage Ave
Shooting,-76.688898,39.27529,Black,Male,18,2012-01-19,4300 Cedargarden Rd
Shooting,-76.675731,39.292825,Black,Male,30,2012-01-12,500 N Edgewood St
Shooting,-76.5989041,39.2282872,Black,Male,35,2012-01-08,1000 Renick Ct
Shooting,-76.5836661,39.3010081,Black,Male,27,2012-01-06,2400 Ashland Ave
Stabbing,-76.5812289,39.3048253,Black,Female,84,2012-01-05,2600 E. Biddle St
Shooting,-76.6691278,39.3320094,Black,Male,62,2012-01-03,4000 Edgewood Rd
Blunt Force,-76.6594889,39.279043,Black,Male,65,2012-01-03,500 Brunswich
